CITY,STATE,CAPITAL,IBGE_RES_POP,IBGE_RES_POP_BRAS,IBGE_RES_POP_ESTR,IBGE_DU,IBGE_DU_URBAN,IBGE_DU_RURAL,IBGE_POP,IBGE_1,IBGE_1-4,IBGE_5-9,IBGE_10-14,IBGE_15-59,IBGE_60+,IBGE_PLANTED_AREA,IBGE_CROP_PRODUCTION_$,IDHM Ranking 2010,IDHM,IDHM_Renda,IDHM_Longevidade,IDHM_Educacao,LONG,LAT,ALT,PAY_TV,FIXED_PHONES,AREA,ESTIMATED_POP,GVA_AGROPEC,GVA_INDUSTRY,GVA_SERVICES,GVA_PUBLIC,GVA_TOTAL,TAXES,GDP,POP_GDP,GDP_CAPITA,MUN_EXPENDIT,COMP_TOT,HOTELS,BEDS,Pr_Agencies,Pu_Agencies,Pr_Bank,Pu_Bank,Pr_Assets,Pu_Assets,Cars,Motorcycles,MAC,POST_OFFICES,REGION
Abadia De Goiás,GO,0,6876,6876,0,2137,1546,591,5300,69,318,438,517,3542,416,319,1843000,1689,0.708,0.687,0.83,0.622,-49.4405,-16.7588,893.6015,360,842,147.256,8583,6201000,27991000,74750000,36915000,145858000,20554000,166412000,8053,20665.0,28227690,284,0,0,0,0,0,0,0,0,2158,1246,0,1,Midwest
Abadia Dos Dourados,MG,0,6704,6704,0,2328,1481,847,4154,38,207,260,351,2709,589,4479,18017000,2207,0.689,0.693,0.839,0.563,-47.3968,-18.4876,753.1249,77,296,881.064,6972,50525000,25918000,62689000,28084000,167215000,12873000,180089000,7037,25592.0,17909274,476,0,0,0,0,0,0,0,0,2227,1142,0,1,Southeast
Abadiânia,GO,0,15757,15609,148,4655,3233,1422,10656,139,650,894,1087,6896,990,10307,33085000,2202,0.689,0.671,0.841,0.579,-48.7188,-16.1827,1017.5506,227,720,1045.127,19614,42839000,16728000,138199000,63396000,261162000,26823000,287984000,18427,15628.0,37513019,288,1,34,1,1,1,1,33724584,67091904,2838,1426,0,3,Midwest
Abaetetuba,PA,0,141100,141040,60,31061,19057,12004,82956,1354,5567,7618,8905,53516,5996,25200,700872000,3530,0.628,0.579,0.798,0.537,-48.8844,-1.7235,10.1203,3389,1218,1610.651,156292,140464000,58610000,468129000,486872000,1154075000,95180000,1249255000,151934,8222.0,0,931,0,0,2,4,2,4,76181384,800078483,5277,25661,0,2,North
Abaeté,MG,0,22690,22690,0,7694,6667,1027,18464,176,856,1233,1539,11979,2681,1862,7502000,1994,0.698,0.72,0.848,0.556,-45.4462,-19.1558,644.7399,1230,1716,1817.067,23223,113825000,31003000,172333000,86081000,403241000,26994000,430235000,23574,18250.0,0,621,0,0,2,2,2,2,44974716,371922572,6928,2953,0,4,Southeast
Abaiara,CE,0,10496,10496,0,2791,1251,1540,4538,98,323,421,483,2631,582,2598,5234000,3522,0.628,0.54,0.748,0.612,-39.0475,-7.357,403.1085,29,34,180.08,11663,4435000,5876000,22808000,35990000,69109000,4043000,73151000,11483,6370.0,0,86,0,0,0,0,0,0,0,0,553,1674,0,1,Northeast
Abaré,BA,0,17064,17064,0,4332,2379,1953,8994,167,733,978,927,5386,803,2058,22761000,4756,0.575,0.533,0.776,0.46,-39.1166,-8.7234,316.382,51,222,1604.923,19814,9176000,6703000,36922000,65748000,118549000,6205000,124754000,19939,6257.0,0,87,0,0,1,0,1,0,21823314,0,613,1532,0,1,Northeast
Abatiá,PR,0,7764,7764,0,2499,1877,622,5685,69,302,370,483,3650,811,1197,9943000,2258,0.687,0.676,0.804,0.596,-50.3125,-23.3005,579.2955,55,392,228.717,7507,73341000,8840000,42999000,34103000,159283000,5765000,165048000,7795,21174.0,0,285,0,0,0,1,0,1,0,45976288,2168,912,0,1,South
Abaíra,BA,0,8316,8316,0,2572,1193,1379,3725,37,156,263,277,2319,673,895,3999000,4086,0.603,0.577,0.746,0.51,-41.6616,-13.2535,674.2237,952,335,538.677,8767,12413000,3437000,17991000,28464000,62305000,2020000,64325000,9212,6983.0,0,191,1,24,0,0,0,0,0,0,896,696,0,1,Northeast
Abdon Batista,SC,0,2653,2653,0,848,234,614,724,12,32,49,63,479,89,5502,26195000,2092,0.694,0.66,0.812,0.625,-51.0253,-27.609,720.9758,109,260,237.164,2577,24997000,3579000,16011000,17843000,62429000,2313000,64742000,2617,24739.0,19506956,69,0,0,0,1,0,1,0,42909056,976,345,0,1,South
Abel Figueiredo,PA,0,6780,6780,0,1880,1650,230,5998,102,471,609,691,3657,468,1184,4168000,3657,0.622,0.625,0.8,0.481,-48.3968,-4.9514,192.7567,248,43,614.131,7382,21382000,5314000,20515000,27736000,74948000,4710000,79658000,7179,11096.0,0,72,0,0,0,1,0,1,0,11709575,279,807,0,1,North
Abelardo Luz,SC,0,17100,17084,16,4739,2694,2045,9544,147,616,808,963,6068,942,57186,254540000,2032,0.696,0.684,0.852,0.578,-52.3365,-26.563,724.9871,484,910,953.992,17847,212531000,78176000,197092000,78972000,566772000,37508000,604280000,17782,33983.0,0,464,0,0,1,2,1,2,29730462,382942698,5823,2001,0,1,South
Abre Campo,MG,0,13311,13294,17,3930,2202,1728,7101,85,362,529,620,4512,993,4543,24155000,3046,0.654,0.646,0.823,0.525,-42.481,-20.3014,589.8301,625,519,470.551,13465,43828000,10449000,72852000,50664000,177793000,10111000,187904000,13726,13690.0,0,369,0,0,0,1,0,1,0,81340685,2838,1851,0,2,Southeast
Abreu E Lima,PE,0,94429,94407,22,28182,25944,2238,81482,1050,4405,6255,7019,54749,8004,387,2595000,2477,0.679,0.625,0.791,0.632,-34.8991,-7.9044,27.0606,1418,4661,126.193,99622,7799000,384262000,526039000,336142000,1254241000,170265000,1424506000,98990,14390.0,119645700,841,0,0,2,3,2,3,155632735,460626103,14579,10122,0,1,Northeast
Abreulândia,TO,0,2391,2391,0,760,445,315,1476,21,107,172,182,872,122,13102,31281000,2786,0.665,0.7,0.835,0.502,-49.1624,-9.6218,238.8619,14,29,1895.212,2564,20313000,2108000,6802000,16521000,45744000,1634000,47378000,2555,18543.0,9712530,27,0,0,0,0,0,0,0,0,190,318,0,1,North
Acaiaca,MG,0,3920,3920,0,1264,834,430,2550,31,150,197,256,1581,335,208,509000,3493,0.63,0.61,0.823,0.499,-43.1482,-20.3604,492.791,229,133,101.886,3994,3839000,1892000,11979000,17696000,35406000,1018000,36424000,4061,8969.0,12182050,60,0,0,0,0,0,0,0,0,899,598,0,1,Southeast
Acajutiba,BA,0,14653,14643,10,4116,3632,484,12727,216,849,1282,1404,7412,1564,4570,11442000,4613,0.582,0.56,0.723,0.487,-38.0183,-11.6626,183.9284,426,297,181.475,15129,23177000,7023000,33546000,48143000,111889000,3270000,115158000,15764,7305.0,27275310,96,0,0,0,1,0,1,0,50185684,834,1444,0,1,Northeast
Acarape,CE,0,15338,15338,0,4186,2181,2005,8189,142,554,693,855,5149,796,1386,1274000,4009,0.606,0.559,0.709,0.562,-38.7056,-4.2231,94.5123,692,91,155.169,15399,4677000,23265000,36148000,54651000,118741000,9650000,128391000,16418,7820.0,33078580,132,0,0,0,0,0,0,0,0,1089,1246,0,2,Northeast
Acaraú,CE,0,57551,57542,9,14680,7410,7270,24117,358,1615,2084,2558,15123,2379,18505,38871000,4125,0.601,0.554,0.758,0.517,-40.1182,-2.8853,17.2914,3032,479,845.468,62557,74353000,94124000,187458000,188055000,543990000,36737000,580727000,61715,9410.0,101483436,638,0,0,1,3,1,3,57802114,529074069,3371,10448,0,1,Northeast
Acari,RN,0,11035,11030,5,3298,2721,577,8260,111,404,556,658,5217,1314,375,1977000,2462,0.679,0.633,0.779,0.634,-36.6437,-6.4421,258.8351,947,146,608.466,11152,12580000,9275000,30356000,50992000,103203000,5380000,108583000,11338,9577.0,22943205,167,1,34,0,0,0,0,0,0,1259,1802,0,1,Northeast
Acará,PA,0,53569,53516,53,11833,3014,8819,12590,265,1082,1436,1537,7281,989,41637,342851000,5513,0.506,0.517,0.757,0.332,-48.2005,-1.9634,7.395,964,181,4343.55,55513,441282000,43934000,97080000,188941000,771238000,17178000,788416000,54080,14579.0,106368816,162,0,0,1,1,1,1,22821995,37523391,652,3342,0,1,North
Acauã,PI,0,6749,6749,0,1877,266,1611,901,13,74,83,99,558,74,5520,503000,5408,0.528,0.517,0.692,0.411,-41.0836,-8.2208,372.3118,6,28,1279.586,7065,6047000,1556000,7052000,25754000,40410000,2193000,42603000,6951,6129.0,14935714,77,0,0,0,0,0,0,0,0,272,1014,0,1,Northeast
Aceguá,RS,0,4394,4265,129,1398,314,1084,1059,17,46,76,119,684,117,31149,119866000,2259,0.687,0.703,0.852,0.541,-54.1647,-31.864,237.9222,171,298,1551.339,4858,130383000,10633000,66901000,30193000,238110000,12222000,250332000,4731,52913.0,22028720,168,0,0,0,1,0,1,0,13450411,2046,591,0,2,South
Acopiara,CE,0,51160,51160,0,15041,7885,7156,25159,365,1521,1929,2422,15121,3801,17482,4244000,4279,0.595,0.563,0.724,0.517,-39.4557,-6.0928,312.9576,426,598,2265.349,53931,35058000,17009000,137662000,155450000,345178000,26523000,371701000,53358,6966.0,85042995,365,1,22,1,3,1,3,33077714,262320355,3158,11056,0,10,Northeast
Acorizal,MT,0,5516,5516,0,1742,899,843,2926,37,160,257,287,1793,392,278,2299000,3523,0.628,0.594,0.816,0.51,-56.3716,-15.1979,201.781,187,192,1014.029,5424,9896000,13184000,13178000,28666000,64923000,5914000,70837000,5301,13363.0,0,57,1,18,0,0,0,0,0,0,492,529,0,3,Midwest
Acrelândia,AC,0,12538,12535,3,3473,1679,1794,5902,118,508,671,710,3484,411,5807,31152000,4079,0.604,0.584,0.808,0.466,-67.0523,-10.0738,205.894,184,369,1807.948,15020,91144000,14019000,32080000,85106000,222349000,5262000,227611000,14120,16120.0,22507579,107,1,27,0,1,0,1,0,86310524,1223,3343,0,1,North
Acreúna,GO,0,20279,20270,9,6485,5636,849,16969,211,1008,1400,1559,11256,1535,112457,452254000,2282,0.686,0.71,0.822,0.553,-50.375,-17.3982,542.3927,596,2065,1565.997,22182,232884000,47274000,207423000,86030000,573612000,40799000,614411000,21905,28049.0,46887656,318,0,0,2,1,2,1,81831560,98509641,4892,3461,0,1,Midwest
Adamantina,SP,0,33797,33769,28,11335,10777,558,31695,333,1282,1803,2089,20651,5537,14699,69644000,69,0.79,0.772,0.852,0.75,-51.0734,-21.6883,451.1188,1354,7648,411.987,35023,41900000,298402000,587637000,151089000,1079028000,73414000,1152441000,35094,32839.0,115703288,1726,0,0,3,2,3,2,526179392,823567347,14851,6481,0,1,Southeast
Adelândia,GO,0,2477,2471,6,846,746,100,2190,27,114,153,174,1435,287,1091,4158000,1858,0.702,0.664,0.836,0.622,-50.1631,-16.415,641.1067,100,75,115.353,2517,7943000,2749000,8462000,11115000,30269000,1695000,31964000,2561,12481.0,11102682,57,0,0,0,0,0,0,0,0,584,393,0,1,Midwest
Adolfo,SP,0,3557,3557,0,1200,1081,119,3200,30,149,206,234,2079,502,9755,67479000,1044,0.73,0.71,0.844,0.648,-49.6497,-21.2327,425.3921,520,271,211.055,3571,29090000,6145000,27722000,21019000,83976000,2490000,86466000,3616,23912.0,0,81,0,0,1,0,1,0,32631770,0,1394,401,0,1,Southeast
Adrianópolis,PR,0,6376,6376,0,1976,643,1333,2050,26,124,172,220,1258,250,4257,41893000,2746,0.667,0.644,0.817,0.563,-48.9918,-24.6617,180.7059,367,539,1349.311,5983,29900000,107937000,40707000,30010000,208554000,30527000,239080000,6293,37991.0,27071690,145,0,0,1,0,1,0,20476881,0,1437,925,0,3,South
Adustina,BA,0,15702,15702,0,4544,1704,2840,5545,65,324,437,524,3498,697,26000,26863000,5261,0.546,0.526,0.718,0.432,-38.1155,-10.5296,280.7102,199,81,632.139,16784,14280000,4420000,29092000,49456000,97248000,4230000,101478000,17254,5881.0,29542520,92,0,0,0,0,0,0,0,0,262,1185,0,1,Northeast
Afogados Da Ingazeira,PE,0,35088,35088,0,10879,8667,2212,27335,389,1766,2324,2618,16849,3389,3625,1404000,2974,0.657,0.623,0.807,0.565,-37.6377,-7.7483,515.3462,771,4181,377.696,37111,7598000,33313000,180016000,127393000,348319000,37330000,385649000,36866,10461.0,68786461,527,0,0,1,2,1,2,95355383,251149663,5737,10461,0,1,Northeast
Afonso Bezerra,RN,0,10844,10844,0,2948,1602,1346,5736,90,371,497,495,3492,791,711,6358000,4539,0.585,0.56,0.713,0.502,-36.5091,-5.4987,64.5032,163,82,576.18,11041,6021000,3493000,18878000,53155000,81547000,3238000,84785000,11207,7565.0,29729803,72,0,0,0,0,0,0,0,0,655,838,0,1,Northeast
Afonso Cláudio,ES,0,31091,31091,0,9859,5310,4549,15757,215,845,1116,1268,10052,2261,12267,114366000,2744,0.667,0.661,0.825,0.544,-41.1255,-20.077,360.7991,1230,995,941.188,30720,103014000,52082000,167838000,124251000,447185000,25292000,472477000,32407,14579.0,69220539,555,0,0,0,3,0,3,0,324101608,8131,7984,0,6,Southeast
Afonso Cunha,MA,0,5905,5905,0,1305,734,571,3230,60,301,373,369,1880,247,6388,17098000,5406,0.529,0.471,0.725,0.434,-43.3209,-4.135,67.1975,89,10,371.338,6469,2461000,1600000,8463000,21500000,34025000,1434000,35459000,6421,5522.0,0,14,0,0,0,0,0,0,0,0,61,519,0,1,Northeast
Afrânio,PE,0,17586,17586,0,4744,1681,3063,5841,91,477,570,553,3616,534,7000,173000,4445,0.588,0.542,0.761,0.493,-41.0058,-8.5111,515.8429,39,533,1490.594,19456,8158000,6727000,52943000,72458000,140286000,10053000,150340000,19225,7820.0,44498864,141,0,0,0,1,0,1,0,44765064,809,3677,0,4,Northeast
Afuá,PA,0,35042,35042,0,6748,1979,4769,9408,185,818,1213,1218,5399,575,140,958000,5544,0.489,0.485,0.774,0.311,-50.3914,-0.1592,3.1364,1521,61,8338.438,38863,107967000,17984000,41202000,139566000,306719000,9272000,315991000,37778,8364.0,0,36,0,0,0,2,0,2,0,50400651,2,4,0,1,North
Agrestina,PE,0,22679,22679,0,6882,5209,1673,16935,242,1046,1487,1761,10195,2204,361,667000,4350,0.592,0.581,0.76,0.47,-35.9468,-8.456,437.1549,542,520,200.581,24702,20548000,19201000,75135000,89128000,204012000,16678000,220690000,24454,9025.0,48941210,225,1,8,0,1,0,1,0,33677594,2825,2929,0,3,Northeast
Agricolândia,PI,0,5098,5098,0,1536,1100,436,3594,46,198,265,379,2100,606,2442,6319000,4185,0.599,0.55,0.742,0.526,-42.6592,-5.7955,260.4377,145,77,112.392,5148,1981000,1454000,6406000,18108000,27949000,1571000,29519000,5069,5824.0,12532965,39,0,0,0,0,0,0,0,0,282,1185,0,1,Northeast
Agrolândia,SC,0,9323,9318,5,2952,1927,1025,5951,71,364,421,484,3961,650,3909,26723000,1167,0.725,0.727,0.827,0.633,-49.8257,-27.4005,383.2162,369,603,206.914,10711,36177000,55228000,75110000,43982000,210497000,15304000,225802000,10427,21655.0,0,490,0,0,1,1,1,1,40876891,58718873,4218,2146,0,1,South
Agronômica,SC,0,4904,4904,0,1511,589,922,1858,25,95,121,165,1266,186,5945,56156000,754,0.741,0.774,0.884,0.595,-49.7184,-27.2697,342.1897,181,392,129.774,5385,47908000,22249000,35730000,24435000,130322000,8068000,138390000,5371,25766.0,16270811,223,0,0,0,0,0,0,0,0,2135,903,0,1,South
Aguanil,MG,0,4054,4054,0,1353,791,562,2296,28,109,128,210,1484,337,3679,21206000,2845,0.663,0.672,0.845,0.513,-45.3895,-20.9374,840.8977,151,92,232.091,4448,22571000,2520000,18121000,19636000,62848000,1930000,64778000,4406,14702.0,13891248,91,0,0,0,0,0,0,0,0,1065,296,0,2,Southeast
Aguaí,SP,0,32148,32126,22,9899,8970,929,28182,363,1569,1943,2273,18608,3426,31346,223900000,1460,0.715,0.703,0.858,0.606,-46.9797,-22.0597,662.483,1389,5019,474.554,35954,115600000,146492000,307156000,117822000,687071000,77217000,764288000,35189,21720.0,0,799,0,0,3,2,3,2,235543694,198861114,11167,5754,0,1,Southeast
Agudo,RS,0,16722,16718,4,5431,2410,3021,6792,76,282,415,533,4458,1028,19914,199426000,2103,0.694,0.752,0.847,0.524,-53.2587,-29.6457,65.7938,641,1120,534.624,16524,100337000,72158000,140968000,73970000,387433000,36215000,423647000,17102,24772.0,42334740,485,0,0,0,3,0,3,0,282009388,5888,2075,0,1,South
Agudos,SP,0,34524,34515,9,10201,9769,432,32261,433,1767,2250,2777,21424,3610,15695,100430000,662,0.745,0.705,0.845,0.694,-48.9902,-22.474,601.3844,2708,5221,966.708,37023,59175000,1393905000,628745000,160194000,2242020000,320966000,2562986000,36704,69829.0,142168689,840,0,0,3,2,3,2,199136608,324995492,12644,4808,0,2,Southeast
Agudos Do Sul,PR,0,8270,8270,0,2579,879,1700,1826,34,103,143,192,1186,168,7149,49747000,2900,0.66,0.671,0.79,0.543,-49.3387,-25.9906,869.3346,429,500,192.261,9269,59237000,8979000,53726000,36392000,158334000,9633000,167967000,9073,18513.0,17241225,148,0,0,1,0,1,0,32280166,0,3042,1182,0,2,South
Aguiar,PB,0,5530,5530,0,1660,864,796,2699,32,177,201,245,1611,433,448,200000,4229,0.597,0.632,0.753,0.447,-38.1776,-7.0948,272.1856,9,35,344.708,5571,4931000,2181000,10268000,25408000,42788000,1560000,44348000,5567,7966.0,17161264,28,0,0,0,0,0,0,0,0,272,721,0,1,Northeast
Aguiarnópolis,TO,0,5162,5162,0,1323,1067,256,4117,93,360,480,438,2486,260,394,14544000,2981,0.657,0.618,0.804,0.571,-47.4705,-6.5472,173.1937,63,89,235.394,6572,38385000,7300000,38614000,36937000,121237000,13384000,134621000,6307,21345.0,16061415,42,0,0,0,0,0,0,0,0,472,1156,0,1,North
Aimorés,MG,0,24959,24959,0,8242,6571,1671,19057,231,961,1401,1582,11874,3008,3912,32955000,2340,0.684,0.685,0.81,0.576,-41.0733,-19.492,64.0,906,2031,1348.913,25193,44773000,79812000,166682000,97149000,388416000,21787000,410203000,25703,15959.0,45443312,490,0,0,1,2,1,2,28036081,395574331,3769,4838,0,9,Southeast
Aiquara,BA,0,4602,4602,0,1376,786,590,2673,40,156,256,245,1625,351,2910,5677000,4573,0.583,0.573,0.733,0.471,-39.8858,-14.1273,155.1018,66,100,167.877,4478,16939000,2591000,8921000,20020000,48471000,1345000,49816000,4745,10499.0,0,34,0,0,0,0,0,0,0,0,172,260,0,1,Northeast
Aiuaba,CE,0,16203,16203,0,4451,1252,3199,3939,59,243,300,364,2382,591,11125,5315000,4871,0.569,0.518,0.749,0.474,-40.1232,-6.5633,472.2246,72,142,2434.423,17303,11972000,2477000,29124000,53934000,97506000,4167000,101674000,17098,5947.0,31669431,94,0,0,0,1,0,1,0,12641618,423,2253,0,2,Northeast
Aiuruoca,MG,0,6162,6154,8,2028,1043,985,3042,28,113,206,235,1966,494,1260,4699000,2735,0.668,0.677,0.871,0.505,-44.6028,-21.9759,979.432,486,381,649.68,6032,31727000,4855000,32791000,24702000,94075000,4553000,98629000,6224,15846.0,13778976,112,0,0,1,0,1,0,129835678,0,1585,914,0,1,Southeast
Ajuricaba,RS,0,7255,7253,2,2467,1430,1037,4098,50,173,255,302,2662,656,28841,75814000,503,0.753,0.763,0.85,0.658,-53.7728,-28.2377,329.6848,96,531,322.671,7063,92359000,17703000,101151000,33158000,244371000,19168000,263539000,7372,35749.0,0,295,0,0,0,2,0,2,0,218950156,3072,872,0,1,South
Alagoa,MG,0,2709,2706,3,875,364,511,1099,13,40,69,98,716,163,15,28000,3145,0.649,0.634,0.832,0.518,-44.6381,-22.1711,1115.5199,162,92,161.356,2683,5039000,1801000,8576000,14932000,30348000,1088000,31436000,2756,11406.0,11323018,35,0,0,0,0,0,0,0,0,479,332,0,1,Southeast
Alagoa Grande,PB,0,28479,28479,0,8014,5137,2877,17520,236,1027,1451,1668,10422,2716,4984,20712000,4599,0.582,0.576,0.797,0.43,-35.6339,-7.0368,143.2507,298,438,320.563,28623,16118000,11376000,75378000,123103000,225975000,13682000,239657000,28604,8378.0,45438117,238,0,0,1,2,1,2,17358627,228876178,1788,3396,0,3,Northeast
Alagoa Nova,PB,0,19681,19681,0,5435,2833,2602,9794,176,627,875,939,5844,1333,5795,24722000,4734,0.576,0.567,0.749,0.451,-35.7595,-7.0578,514.3035,45,265,123.731,20589,80031000,24667000,46472000,89564000,240734000,10124000,250857000,20596,12180.0,39834146,121,0,0,0,1,0,1,0,53703174,1647,1917,0,1,Northeast
Alagoinha,PE,0,13759,13753,6,4108,2410,1698,7769,120,502,666,742,4635,1104,638,611000,4184,0.599,0.569,0.801,0.472,-36.7755,-8.4663,731.3153,318,427,216.452,14554,21339000,2581000,33069000,57171000,114159000,4812000,118971000,14431,8244.0,31782188,61,0,0,0,1,0,1,0,25113414,1210,1153,0,1,Northeast
Alagoinha,PB,0,13576,13576,0,3703,2490,1213,8998,173,639,868,944,5261,1113,1424,5058000,4268,0.595,0.574,0.795,0.462,-35.5455,-6.9481,142.4201,102,122,96.98,14367,8558000,3191000,22820000,61290000,95859000,3706000,99564000,14376,6926.0,29417339,108,0,0,0,0,0,0,0,0,936,1703,0,1,Northeast
Alagoinha Do Piauí,PI,0,7341,7341,0,2278,885,1393,2668,28,148,174,226,1725,367,9483,1855000,5394,0.531,0.535,0.716,0.391,-40.9346,-7.0082,279.2437,11,42,535.807,7636,3274000,1601000,10680000,28284000,43839000,1996000,45834000,7515,6099.0,13740823,53,0,0,0,0,0,0,0,0,485,639,0,1,Northeast
Alagoinhas,BA,0,141949,141929,20,41702,36764,4938,123051,1704,6649,8980,10393,82616,12709,2585,16886000,2385,0.683,0.681,0.79,0.592,-38.4226,-12.1342,141.1371,3562,14838,707.558,150832,73997000,614852000,1399739000,483018000,2571605000,605970000,3177575000,155362,20453.0,290162506,2231,1,120,5,5,3,3,562260923,2141509149,24457,21546,0,3,Northeast
Alambari,SP,0,4884,4876,8,1526,1135,391,3671,49,225,297,350,2328,422,5271,31280000,1569,0.712,0.682,0.805,0.658,-47.8936,-23.5539,609.6593,270,492,159.6,5918,29984000,7031000,23785000,23097000,83897000,3387000,87284000,5658,15427.0,0,137,0,0,0,0,0,0,0,0,1260,696,0,1,Southeast
Albertina,MG,0,2913,2910,3,899,639,260,1998,26,90,127,181,1273,301,1506,19808000,2617,0.673,0.684,0.813,0.549,-46.6116,-22.1998,992.106,118,115,58.01,3003,8057000,4025000,38868000,15487000,66438000,11982000,78420000,3040,25796.0,11479747,72,0,0,0,0,0,0,0,0,947,379,0,1,Southeast
Alcantil,PB,0,5239,5239,0,1567,639,928,2062,40,132,162,197,1294,237,516,47000,4673,0.578,0.55,0.765,0.458,-36.0606,-7.7415,518.6663,32,65,305.988,5473,3994000,1383000,6694000,25987000,38057000,900000,38957000,5475,7115.0,13445071,37,0,0,0,0,0,0,0,0,297,274,0,1,Northeast
Alcinópolis,MS,0,4569,4562,7,1587,1071,516,3008,38,183,248,270,2014,255,11526,38982000,1578,0.711,0.733,0.858,0.572,-53.7081,-18.325,430.9299,173,341,4399.681,5268,81036000,4294000,24192000,38195000,147717000,9296000,157013000,5114,30703.0,30320410,60,2,59,0,0,0,0,0,0,847,1044,0,1,Midwest
Alcobaça,BA,0,21271,21261,10,6068,3240,2828,11788,216,865,1110,1235,7307,1055,3419,38318000,3982,0.608,0.611,0.771,0.476,-39.1942,-17.5189,6.3989,816,570,1482.285,22449,80343000,12392000,79155000,78024000,249914000,10220000,260134000,23331,11150.0,48798422,176,0,0,0,2,0,2,0,258294772,1342,2032,0,2,Northeast
Alcântara,MA,0,21851,21851,0,6084,1683,4401,6383,79,443,584,637,4111,529,1671,3831000,4798,0.573,0.525,0.753,0.475,-44.417,-2.4033,29.7195,389,308,1168.246,22083,14464000,7861000,29391000,61419000,113136000,4359000,117495000,21667,5423.0,46725620,124,1,25,1,0,1,0,18171127,0,327,1282,0,1,Northeast
Alcântaras,CE,0,10771,10762,9,2859,976,1883,3446,48,214,261,339,2156,428,2209,2058000,4144,0.6,0.549,0.751,0.524,-40.5446,-3.587,655.501,256,126,138.605,11529,4395000,2209000,14985000,36237000,57827000,1755000,59582000,11391,5231.0,0,82,0,0,0,0,0,0,0,0,668,2963,0,2,Northeast
Aldeias Altas,MA,0,23952,23952,0,5795,3388,2407,13620,303,1343,1513,1538,7864,1059,9756,78843000,5492,0.513,0.5,0.72,0.374,-43.4687,-4.6308,80.4872,82,45,1942.121,26302,31990000,9705000,38559000,81625000,161878000,7373000,169252000,26115,6481.0,57710610,91,0,0,0,0,0,0,0,0,327,2271,0,0,Northeast
Alecrim,RS,0,7045,7008,37,2473,806,1667,2160,18,68,110,141,1312,511,4383,22657000,2628,0.672,0.683,0.852,0.522,-54.7671,-27.6611,307.8533,86,221,316.51,6077,28756000,3209000,36557000,28259000,96780000,4394000,101174000,6799,14881.0,17492090,138,0,0,0,1,0,1,0,45506761,2332,1076,0,1,South
Alegre,ES,0,30768,30768,0,9960,7198,2762,20375,257,975,1352,1626,13224,2941,5112,35707000,1277,0.721,0.708,0.839,0.63,-41.5365,-20.7633,258.9034,1250,2002,772.0,30568,48037000,100250000,185605000,127799000,461691000,25614000,487304000,32175,15145.0,75746241,754,1,27,1,3,1,3,39670421,372251110,6761,4542,0,0,Southeast
Alegrete,RS,0,77653,77589,64,25963,23062,2901,69238,846,3249,4535,5888,44427,10293,89401,479259000,791,0.74,0.72,0.849,0.664,-55.7959,-29.782,94.7312,4757,9935,7800.163,74173,389202000,207399000,797319000,335179000,1729099000,124429000,1853528000,78244,23689.0,176442536,1862,2,154,3,4,3,3,373979154,1489638304,21837,8230,0,2,South
Alegrete Do Piauí,PI,0,5153,5153,0,1489,868,621,2834,49,181,231,270,1785,318,4535,846000,4538,0.585,0.564,0.749,0.475,-40.8579,-7.2453,410.8887,54,136,243.732,4912,2647000,1053000,9482000,18740000,31921000,2098000,34019000,4835,7036.0,0,41,0,0,0,0,0,0,0,0,175,296,0,1,Northeast
Alegria,RS,0,4301,4297,4,1495,575,920,1585,11,62,109,112,956,335,11054,31726000,2074,0.695,0.717,0.818,0.572,-54.0574,-27.8373,358.1974,26,95,172.396,3559,38175000,4276000,33784000,22283000,98518000,8282000,106799000,4085,26144.0,14802900,86,0,0,0,1,0,1,0,25807023,1224,650,0,2,South
Alenquer,PA,0,52626,52615,11,12119,6674,5445,27641,535,2342,3165,3483,15393,2723,16651,102428000,4971,0.564,0.529,0.779,0.436,-54.7409,-1.9514,39.1312,254,140,23645.452,56480,292652000,29108000,115448000,206974000,644181000,15308000,659490000,54960,11999.0,0,245,0,0,1,3,1,3,11084681,232943586,984,7671,0,1,North
Alexandria,RN,0,13507,13507,0,3945,2732,1213,9169,106,567,696,805,5534,1461,92,0,4020,0.606,0.581,0.779,0.491,-38.0193,-6.4171,309.0512,187,157,381.205,13602,3193000,5366000,43051000,62404000,114016000,4749000,118765000,13839,8582.0,40064068,208,0,0,0,1,0,1,0,74602302,1805,2661,0,1,Northeast
Alexânia,GO,0,23814,23814,0,7426,6077,1349,19118,267,1196,1759,1937,12062,1897,10703,41947000,2389,0.682,0.664,0.841,0.568,-48.5096,-16.0862,1076.7189,574,1825,847.893,27288,49970000,145341000,872356000,100353000,1168019000,232929000,1400948000,26457,52952.0,59707413,501,1,8,1,3,1,3,49359519,251907758,6673,3027,0,2,Midwest
Alfenas,MG,0,73774,73735,39,23238,21862,1376,68964,867,3482,4616,5613,45941,8445,29642,195083000,352,0.761,0.737,0.841,0.712,-45.9489,-21.4282,877.3397,5519,10406,850.446,79481,171051000,387645000,1176081000,298291000,2033069000,261586000,2294655000,79222,28965.0,189730328,2456,1,140,5,3,4,2,1094209443,1528709329,27210,10138,0,5,Southeast
Alfredo Chaves,ES,0,13955,13955,0,4584,2223,2361,6541,90,344,400,451,4401,855,8242,113235000,1608,0.71,0.703,0.832,0.611,-40.76,-20.6303,64.7923,690,654,615.677,14566,91129000,62384000,109342000,63200000,326056000,24058000,350114000,15029,23296.0,0,831,0,0,0,3,0,3,0,179767662,3847,3216,0,7,Southeast
Alfredo Marcondes,SP,0,3891,3891,0,1352,1135,217,2685,25,105,168,176,1680,531,466,2186000,761,0.741,0.682,0.84,0.71,-51.4129,-21.9527,414.1973,129,436,118.915,4147,6310000,14824000,25089000,18132000,64355000,10077000,74432000,4118,18075.0,0,107,0,0,0,1,0,1,0,35239550,1449,429,0,1,Southeast
Alfredo Vasconcelos,MG,0,6075,6075,0,1781,1183,598,4031,43,231,318,356,2669,414,290,4634000,2551,0.675,0.629,0.834,0.587,-43.7739,-21.1394,1066.1152,330,315,130.815,6831,30249000,9882000,22468000,26253000,88852000,4377000,93228000,6709,13896.0,12692164,130,0,0,0,0,0,0,0,0,1468,895,0,2,Southeast
Alfredo Wagner,SC,0,9410,9410,0,2959,958,2001,2862,24,126,189,222,1910,391,8092,91469000,2723,0.668,0.702,0.882,0.481,-49.3438,-27.7054,489.096,447,580,735.371,9984,135898000,14491000,73223000,39074000,262686000,9079000,271765000,9905,27437.0,0,354,2,83,0,1,0,1,0,99122118,3283,2426,0,1,South
Algodão De Jandaíra,PB,0,2366,2366,0,676,353,323,1231,22,113,119,128,714,135,255,170000,5241,0.548,0.532,0.749,0.413,-36.0061,-6.9047,444.7022,72,17,220.248,2488,1417000,675000,4344000,16145000,22580000,574000,23154000,2488,9306.0,12540881,18,0,0,0,0,0,0,0,0,198,104,0,1,Northeast
Alhandra,PB,0,18007,18007,0,5021,3166,1855,11119,212,827,1102,1180,6865,933,1667,18469000,4598,0.582,0.544,0.778,0.465,-34.912,-7.433,57.4841,141,183,182.663,19391,27741000,91387000,484574000,100635000,704336000,159665000,864001000,19412,44509.0,0,173,0,0,0,1,0,1,0,70442051,1866,2641,0,2,Northeast
Aliança,PE,0,37415,37415,0,10295,5665,4630,22615,357,1388,1995,2197,14170,2508,10090,43934000,4077,0.604,0.565,0.799,0.488,-35.2285,-7.6047,112.1885,779,739,272.773,38375,45103000,17659000,84855000,160674000,308291000,11847000,320138000,38261,8367.0,61904662,295,1,48,0,1,0,1,0,64507540,3150,3110,0,7,Northeast
Aliança Do Tocantins,TO,0,5671,5668,3,1726,1435,291,4743,76,288,444,501,2890,544,7124,19172000,2835,0.663,0.61,0.801,0.596,-48.9412,-11.3037,335.7009,94,296,1579.751,5434,36098000,3363000,18964000,32038000,90463000,3837000,94300000,5565,16945.0,14127100,78,0,0,0,1,0,1,0,57763321,623,897,0,1,North
Almadina,BA,0,6357,6357,0,1983,1552,431,5067,90,270,378,534,3007,788,3357,14006000,4995,0.563,0.563,0.751,0.421,-39.6359,-14.706,290.7255,126,173,245.236,5566,19224000,2914000,10691000,21627000,54455000,979000,55434000,6062,9144.0,0,45,0,0,0,0,0,0,0,0,341,224,0,1,Northeast
Almas,TO,0,7586,7586,0,2090,1607,483,5933,126,499,644,795,3348,521,16574,27979000,3384,0.636,0.616,0.796,0.524,-47.1742,-11.5745,420.7404,129,156,4013.243,7131,60996000,4076000,15287000,41025000,121384000,4075000,125459000,7340,17093.0,0,73,1,70,0,0,0,0,0,0,469,866,0,1,North
Almeirim,PA,0,33614,33606,8,7729,4813,2916,19899,407,1669,2070,2372,12220,1161,751,12004000,3264,0.642,0.659,0.809,0.497,-52.5768,-1.5273,18.7288,3119,324,72954.798,34142,70149000,182934000,138252000,138524000,529859000,59452000,589310000,33282,17707.0,88490748,309,0,0,1,3,1,2,75167787,132714271,1098,1838,0,2,North
Almenara,MG,0,38775,38767,8,11571,9408,2163,31551,428,1838,2519,2827,20068,3871,1424,6690000,3262,0.642,0.636,0.803,0.518,-40.6977,-16.1806,197.3697,881,2576,2294.426,41642,15946000,50502000,222897000,157617000,446962000,27582000,474544000,41552,11420.0,60421401,768,1,10,2,3,2,3,86814675,621276806,4937,6703,0,2,Southeast
Almino Afonso,RN,0,4871,4871,0,1436,1035,401,3468,47,213,260,315,2200,433,189,208000,3611,0.624,0.578,0.739,0.568,-37.7631,-6.1574,243.2723,49,27,128.038,4761,1991000,1185000,8134000,21649000,32958000,1051000,34009000,4876,6975.0,13032035,38,0,0,0,0,0,0,0,0,363,927,0,1,Northeast
Almirante Tamandaré,PR,0,103204,103137,67,30414,29168,1246,87717,1446,5929,7459,9038,57764,6081,2382,14654000,1953,0.699,0.706,0.84,0.575,-49.3003,-25.3134,956.9426,7202,21018,194.744,117168,31875000,343640000,523548000,385217000,1284281000,112008000,1396289000,114129,12234.0,129135424,1971,0,0,2,2,2,2,104170968,624805512,36568,11082,0,3,South
Almirante Tamandaré Do Sul,RS,0,2067,2067,0,731,305,426,837,9,38,42,56,562,130,22933,77474000,790,0.74,0.732,0.828,0.669,-52.9137,-28.1137,601.9722,25,76,265.327,1979,76474000,6058000,34497000,13933000,130961000,6873000,137834000,2085,66107.0,13042456,74,0,0,0,0,0,0,0,0,803,273,0,1,South
Aloândia,GO,0,2051,2051,0,801,695,106,1765,14,85,91,142,1104,329,3623,10224000,2004,0.697,0.694,0.834,0.585,-49.4823,-17.7249,607.5751,28,86,102.16,2005,11119000,2127000,12265000,11384000,36894000,1852000,38746000,2075,18673.0,9391512,40,0,0,1,0,1,0,25035026,0,473,454,0,1,Midwest
Alpercata,MG,0,7172,7166,6,2215,1737,478,5617,60,308,480,623,3453,693,323,2006000,3187,0.646,0.629,0.824,0.521,-41.9891,-18.9868,192.6181,81,326,166.972,7411,5571000,6607000,28110000,31098000,71385000,5228000,76613000,7497,10219.0,16616047,94,0,0,0,0,0,0,0,0,823,726,0,2,Southeast
Alpestre,RS,0,8027,8027,0,2688,795,1893,2143,20,93,136,159,1358,377,9206,58546000,2649,0.671,0.7,0.795,0.543,-53.0374,-27.2488,447.8873,42,247,325.979,6458,49753000,318002000,38289000,39441000,445485000,6044000,451529000,7533,59940.0,31608704,187,0,0,0,1,0,1,0,57138323,2231,1137,0,3,South
Alpinópolis,MG,0,18488,18478,10,5625,4564,1061,14884,185,759,1051,1373,9775,1741,10175,84531000,1182,0.725,0.703,0.862,0.629,-46.3895,-20.8619,870.148,542,932,454.751,19745,73622000,24647000,151497000,71337000,321103000,26324000,347427000,19741,17599.0,34302000,495,0,0,2,2,2,2,56622524,296820017,7244,2306,0,1,Southeast
Alta Floresta,MT,0,49164,49124,40,15199,13203,1996,39877,564,2448,3250,3747,26872,2996,29056,84426000,1498,0.714,0.709,0.817,0.629,-56.0916,-9.8717,273.5354,2765,5771,8953.191,51615,107068000,147880000,831874000,289223000,1376045000,207738000,1583783000,50082,31624.0,0,1505,3,95,3,2,3,2,291375047,948266566,11556,24680,0,2,Midwest
Alta Floresta D'Oeste,RO,0,24392,24392,0,7276,4306,2970,13804,203,869,1159,1281,9023,1269,18288,101470000,3283,0.641,0.657,0.763,0.526,-61.9998,-11.9355,337.7357,240,687,7067.025,23167,166143000,31270000,114455000,142728000,454597000,23186000,477783000,25506,18732.0,50218466,508,0,0,1,2,1,2,38958866,245288714,2464,9268,0,1,North
Altair,SP,0,3815,3815,0,1186,947,239,2998,43,189,220,249,1946,351,58202,344267000,2261,0.687,0.698,0.8,0.581,-49.0601,-20.5233,555.8684,368,279,313.007,4134,138183000,8362000,30466000,19529000,196539000,3562000,200101000,4085,48984.0,18582016,124,0,0,1,0,1,0,20018255,0,1040,189,0,2,Southeast
Altamira,PA,0,99075,99023,52,25619,22677,2942,79622,1387,5847,7891,8687,50556,5254,18544,113132000,2792,0.665,0.662,0.811,0.548,-52.2144,-3.2057,104.7483,1850,4628,159533.328,113195,257761000,571389000,1054252000,364763000,2248166000,224607000,2472773000,109938,22492.0,0,1768,1,41,5,6,3,4,471557677,2225758383,11102,41071,0,3,North
Altamira Do Maranhão,MA,0,11063,11063,0,2632,1118,1515,3154,31,204,316,399,1872,332,2045,4230000,5215,0.549,0.486,0.719,0.473,-45.4647,-4.1623,55.1921,302,44,524.373,8066,16154000,2119000,11951000,30369000,60594000,1600000,62194000,10210,6091.0,21254157,22,0,0,0,0,0,0,0,0,196,1008,0,1,Northeast
Altamira Do Paraná,PR,0,4306,4306,0,1390,720,670,2131,22,94,167,231,1350,267,2493,7847000,2738,0.667,0.667,0.78,0.571,-52.7098,-24.801,589.3238,10,117,386.945,2209,31424000,2202000,17309000,17228000,68162000,3590000,71752000,3143,22829.0,17743322,52,0,0,0,0,0,0,0,0,921,578,0,1,South
Altaneira,CE,0,6856,6856,0,2093,1567,526,4955,73,286,451,539,2798,808,1271,1626000,4103,0.602,0.547,0.774,0.515,-39.7458,-6.9975,659.0818,103,24,73.295,7521,2787000,1723000,11824000,27134000,43468000,1744000,45212000,7413,6099.0,0,31,0,0,0,0,0,0,0,0,361,1142,0,2,Northeast
Alterosa,MG,0,13717,13717,0,4560,3348,1212,9956,135,511,730,849,6297,1434,7802,65470000,2732,0.668,0.657,0.847,0.536,-46.1453,-21.2559,847.0495,589,496,362.01,14414,55240000,11257000,81637000,54218000,202351000,10401000,212752000,14494,14679.0,27510460,290,0,0,1,1,1,1,39578096,48777505,4388,2691,0,2,Southeast
Altinho,PE,0,22353,22345,8,7065,4186,2879,12756,153,690,1020,1182,7632,2079,1197,1395000,4200,0.598,0.559,0.792,0.482,-36.0597,-8.4896,456.2458,98,452,452.523,22959,10569000,5294000,39295000,78627000,133785000,6052000,139837000,22886,6110.0,36724408,199,0,0,0,1,0,1,0,37310212,1536,2138,0,2,Northeast
Altinópolis,SP,0,15607,15601,6,4879,4301,578,13548,143,605,867,1075,8787,2071,43148,334377000,1046,0.73,0.726,0.843,0.635,-47.3733,-21.0246,904.2418,1851,2674,928.956,16164,155578000,22266000,202475000,63563000,443882000,18460000,462342000,16199,28541.0,55755271,691,0,0,3,3,2,2,207939181,353716264,6215,914,0,1,Southeast
Alto Alegre,SP,0,4102,4102,0,1375,1096,279,3234,39,142,180,225,2037,611,12806,60259000,1913,0.7,0.683,0.817,0.616,-50.1636,-21.5817,502.6642,275,385,318.574,4110,39242000,6209000,30843000,20864000,97158000,4984000,102142000,4164,24530.0,17790839,201,0,0,0,1,0,1,0,43232972,1321,464,0,3,Southeast
Alto Alegre,RR,0,16448,16422,26,2169,1238,931,4766,93,380,583,551,2782,377,10421,82877000,5302,0.542,0.518,0.813,0.379,-61.314,2.9938,121.742,110,64,25753.487,15638,66333000,6433000,25236000,148481000,246483000,2272000,248754000,16053,15496.0,0,42,0,0,0,0,0,0,0,0,493,1226,0,1,North
Alto Alegre,RS,0,1848,1848,0,624,272,352,743,10,27,31,56,493,126,7688,24941000,625,0.747,0.756,0.859,0.642,-52.9908,-28.7747,386.5016,25,111,115.335,1663,29096000,2564000,18328000,12079000,62067000,3979000,66046000,1815,36389.0,11148026,82,0,0,0,0,0,0,0,0,711,207,0,1,South
Alto Alegre Do Maranhão,MA,0,24599,24599,0,5857,4621,1236,19366,338,1642,2035,2146,11559,1646,568,876000,5148,0.554,0.516,0.744,0.444,-44.4482,-4.2072,56.9665,274,83,383.308,26839,8155000,16457000,102562000,70897000,198070000,18954000,217024000,26619,8153.0,43906688,99,0,0,0,0,0,0,0,0,642,3051,0,1,Northeast
Alto Alegre Do Pindaré,MA,0,31057,31057,0,7282,2408,4874,9823,212,824,1063,1198,5540,986,3347,7010000,5081,0.558,0.465,0.774,0.483,-45.8421,-3.6652,17.5993,242,201,1876.032,31894,23365000,7655000,42382000,92307000,165709000,9941000,175650000,31303,5611.0,20953227,46,0,0,1,0,1,0,26403988,0,420,2614,0,1,Northeast
Alto Alegre Dos Parecis,RO,0,12816,12804,12,3706,1099,2607,3628,57,212,364,406,2317,272,23049,162436000,4368,0.592,0.603,0.777,0.443,-61.8531,-12.1318,396.5605,68,190,3958.273,13227,96143000,10018000,34152000,80432000,220744000,9286000,230030000,13993,16439.0,29785703,125,0,0,0,0,0,0,0,0,909,3293,0,1,North
Alto Araguaia,MT,0,15644,15638,6,5165,4503,662,13571,231,842,1071,1145,8980,1302,54288,163841000,1803,0.704,0.712,0.802,0.612,-53.2203,-17.3156,669.953,688,1790,5399.326,18703,143972000,322623000,253719000,117697000,838012000,59365000,897376000,17841,50299.0,81218357,470,0,0,0,2,0,2,0,271485255,2973,2785,0,1,Midwest
Alto Bela Vista,SC,0,2005,2005,0,678,219,459,605,7,28,31,50,399,90,1150,4989000,459,0.755,0.734,0.882,0.664,-51.911,-27.4311,493.8552,89,300,103.962,1948,16140000,5998000,10326000,14186000,46651000,2203000,48854000,1977,24711.0,14484924,56,0,0,0,0,0,0,0,0,908,297,0,1,South
Alto Boa Vista,MT,0,5247,5247,0,1162,966,196,3158,45,202,326,354,1999,232,34341,90321000,3090,0.651,0.613,0.803,0.561,-51.3793,-11.6767,248.2737,216,281,2240.438,6659,31409000,3659000,26580000,37863000,99510000,6951000,106462000,6308,16877.0,0,73,0,0,0,0,0,0,0,0,428,1334,0,1,Midwest
Alto Caparaó,MG,0,5297,5291,6,1725,1325,400,3915,43,222,295,357,2543,455,2949,28050000,2878,0.661,0.666,0.842,0.514,-41.8731,-20.4444,958.7732,280,229,103.69,5799,25514000,3550000,29387000,24634000,83085000,4198000,87283000,5748,15185.0,14110136,116,0,0,0,0,0,0,0,0,1532,1124,0,1,Southeast
Alto Do Rodrigues,RN,0,12305,12305,0,3591,2606,985,8841,161,558,716,761,5849,796,1416,16767000,2626,0.672,0.647,0.8,0.585,-36.7595,-5.2938,8.3533,379,146,191.334,14326,39702000,186994000,83281000,83251000,393228000,32985000,426213000,14143,30136.0,0,186,2,67,0,2,0,2,0,103799628,1683,2486,0,1,Northeast
Alto Feliz,RS,0,2917,2917,0,1001,301,700,813,13,38,29,54,556,123,433,8156000,927,0.734,0.74,0.886,0.603,-51.3158,-29.3901,317.3006,292,290,78.852,3020,23451000,19853000,16742000,16365000,76412000,6712000,83125000,3032,27416.0,13164097,102,0,0,0,0,0,0,0,0,1241,529,0,1,South
Alto Garças,MT,0,10350,10338,12,3426,3125,301,9342,142,537,816,780,6062,1005,142262,404366000,1876,0.701,0.707,0.835,0.583,-53.5285,-16.9467,776.912,646,1020,3865.971,11868,272281000,23813000,181859000,66874000,544827000,41570000,586397000,11383,51515.0,36632596,216,1,24,1,1,1,1,46731937,258341616,2095,1817,0,1,Midwest
Alto Horizonte,GO,0,4505,4505,0,1453,1241,212,3858,58,276,305,343,2590,286,511,1806000,1348,0.719,0.709,0.841,0.624,-49.3327,-14.1992,394.7204,161,204,503.764,6218,11393000,238039000,86914000,38621000,374967000,17228000,392194000,5629,69674.0,0,118,0,0,0,0,0,0,0,0,1036,844,0,1,Midwest
Alto Jequitibá,MG,0,8318,8318,0,2736,1510,1226,4719,64,198,306,403,2949,799,5038,52815000,2914,0.66,0.66,0.787,0.554,-41.9672,-20.4229,672.948,393,280,152.272,8333,25954000,5415000,34825000,32413000,98608000,5306000,103913000,8525,12189.0,14549455,169,0,0,1,0,1,0,14967507,0,2479,1709,0,1,Southeast
Alto Longá,PI,0,13646,13646,0,3965,2024,1941,6713,104,393,505,590,4169,952,3027,2658000,4516,0.585,0.567,0.751,0.47,-42.2103,-5.251,139.7628,204,95,1737.836,14268,5133000,3808000,19997000,54157000,83095000,3623000,86718000,14040,6177.0,27589240,131,0,0,0,0,0,0,0,0,446,1969,0,1,Northeast
Alto Paraguai,MT,0,10066,10066,0,3094,1940,1154,6372,77,437,547,564,4028,719,10407,31453000,3355,0.638,0.612,0.784,0.541,-56.4944,-14.5147,238.0,375,364,1844.817,11238,22879000,3169000,22620000,55332000,103999000,4796000,108795000,10814,10061.0,0,58,0,0,0,1,0,1,0,50021620,651,1164,0,2,Midwest
Alto Paraná,PR,0,13663,13657,6,4311,3601,710,11190,179,616,851,943,7143,1458,10319,157086000,2038,0.696,0.679,0.846,0.587,-52.3217,-23.1271,522.8612,213,1029,407.719,14679,80269000,36343000,81286000,57630000,255528000,14342000,269870000,14606,18477.0,30034933,420,0,0,1,1,1,1,43864004,74368614,4197,2135,0,2,South
Alto Paraíso,RO,0,17135,17130,5,5083,2434,2649,3299,55,177,298,368,2181,220,9830,44030000,3590,0.625,0.664,0.804,0.457,-63.3176,-9.7167,128.0001,267,498,2651.822,20999,74247000,22605000,64270000,111134000,272257000,14828000,287085000,20569,13957.0,33731475,256,1,26,1,2,1,2,9613021,226555872,1641,4669,0,1,North
Alto Paraíso,PR,0,3206,3199,7,1101,596,505,1761,18,106,149,159,1083,246,2770,23551000,2487,0.678,0.677,0.829,0.556,-53.7329,-23.5081,392.8838,11,136,967.772,2799,38949000,3870000,15889000,21291000,79999000,3355000,83354000,3037,27446.0,20312589,80,0,0,0,0,0,0,0,0,897,471,0,1,South
Alto Paraíso De Goiás,GO,0,6885,6834,51,2125,1637,488,5142,93,355,465,531,3295,403,14725,60249000,1516,0.713,0.723,0.819,0.611,-47.5191,-14.1362,1232.6064,1099,1077,2593.905,7558,48494000,9572000,63801000,28964000,150830000,9313000,160143000,7454,21484.0,0,287,3,96,1,1,1,1,26367386,32438398,1157,638,0,2,Midwest
Alto Parnaíba,MA,0,10766,10761,5,2657,1769,888,6963,131,540,757,864,4045,626,74559,172328000,3441,0.633,0.683,0.785,0.474,-45.9273,-9.1084,275.6981,94,118,11132.176,11168,83009000,10934000,47222000,36844000,178008000,6850000,184858000,10979,16837.0,0,112,0,0,0,1,0,1,0,66778384,141,1620,0,2,Northeast
Alto Piquiri,PR,0,10179,10179,0,3252,2706,546,8252,124,429,560,691,5201,1247,60814,163430000,2529,0.676,0.669,0.798,0.578,-53.4412,-24.019,412.7792,143,681,447.666,9896,80719000,14582000,96020000,45079000,236400000,16598000,252998000,10253,24675.0,25950821,166,0,0,1,1,1,1,33957144,111290130,2825,1510,0,4,South
Alto Rio Doce,MG,0,12159,12159,0,3608,1590,2018,4991,45,221,308,458,3159,800,1903,3605000,3706,0.62,0.595,0.828,0.483,-43.4189,-21.0221,813.8485,216,578,518.053,11146,37946000,12783000,35849000,43554000,130131000,3804000,133935000,11792,11358.0,18872188,179,0,0,1,0,1,0,106496839,0,1962,2327,0,4,Southeast
Alto Rio Novo,ES,0,7317,7312,5,2302,1386,916,4256,65,249,352,378,2698,514,3208,28762000,2811,0.664,0.634,0.815,0.567,-41.0187,-19.0575,537.9988,76,181,227.617,7798,13514000,5298000,25868000,37014000,81694000,3757000,85451000,7979,10710.0,21524164,196,0,0,0,1,0,1,0,31857657,1285,1507,0,3,Southeast
Alto Santo,CE,0,16359,16359,0,4609,2340,2269,8036,102,452,692,717,5091,982,7069,2900000,4140,0.601,0.563,0.774,0.499,-38.2728,-5.5221,69.9997,751,135,1338.205,17096,30809000,7570000,36884000,51599000,126862000,6689000,133551000,16927,7890.0,34764298,213,0,0,1,0,1,0,16946569,0,775,3073,0,1,Northeast
Alto Taquari,MT,0,8072,8066,6,2425,2187,238,7234,131,502,653,750,4850,348,105210,396361000,1771,0.705,0.736,0.833,0.571,-53.282,-17.8347,874.2165,593,814,1440.399,10557,454831000,220894000,231849000,67837000,975411000,63109000,1038520000,9963,104238.0,41892856,202,1,66,1,2,1,2,24086229,157176653,1647,1177,0,1,Midwest
Altos,PI,0,38822,38822,0,10392,7448,2944,27332,444,1811,2232,2703,16996,3146,3328,7076000,3822,0.614,0.59,0.767,0.512,-42.4609,-5.0365,190.4959,1394,914,957.654,40440,7804000,52495000,124169000,134565000,319032000,27429000,346462000,39795,8706.0,61108622,398,0,0,1,2,1,2,22788144,275248789,3273,9447,0,1,Northeast
Altônia,PR,0,20516,20471,45,6676,4968,1708,14996,202,821,1063,1217,9431,2262,8358,54427000,1275,0.721,0.69,0.848,0.641,-53.892,-23.8709,373.689,143,1063,661.56,21933,66797000,18141000,140549000,87782000,313268000,21293000,334561000,21867,15300.0,0,528,0,0,2,2,2,2,101313136,333956154,6470,4476,0,3,South
Alumínio,SP,0,16839,16831,8,4990,4181,809,14076,201,834,1174,1263,9421,1183,279,1063000,284,0.766,0.729,0.841,0.732,-47.2591,-23.5334,782.1651,1759,3018,83.66,18484,1818000,860099000,360526000,86380000,1308823000,499528000,1808351000,18194,99393.0,0,271,0,0,2,0,2,0,294845540,0,5929,1169,0,1,Southeast
Alvarenga,MG,0,4444,4436,8,1405,694,711,2109,30,110,161,183,1282,343,933,3774000,4351,0.592,0.589,0.798,0.441,-41.7264,-19.4145,393.105,49,162,278.173,3973,7622000,1652000,9204000,18109000,36588000,997000,37585000,4245,8854.0,0,36,0,0,0,0,0,0,0,0,692,1066,0,1,Southeast
Alvarães,AM,0,14088,14073,15,2335,1367,968,7848,203,775,1192,1109,4166,403,5605,47248000,5417,0.527,0.499,0.778,0.377,-64.8135,-3.2166,46.116,363,26,5923.461,15860,62449000,5480000,20108000,58157000,146193000,1753000,147946000,15729,9406.0,25321352,37,0,0,0,0,0,0,0,0,16,571,0,1,North
Alvinlândia,SP,0,3000,3000,0,912,824,88,2688,49,153,190,255,1685,356,2009,38153000,1247,0.722,0.721,0.791,0.659,-49.763,-22.445,666.5149,230,228,84.879,3206,10164000,3539000,16462000,16021000,46187000,982000,47169000,3182,14824.0,12329568,94,0,0,0,1,0,1,0,18294466,894,215,0,1,Southeast
Alvinópolis,MG,0,15261,15261,0,4647,3515,1132,11344,128,599,831,1018,7124,1644,774,2105000,2533,0.676,0.651,0.822,0.577,-43.0661,-20.1148,572.6477,1015,898,599.443,15239,21632000,65500000,83871000,55175000,226178000,42578000,268755000,15609,17218.0,22401440,307,0,0,1,1,1,1,33184200,67004908,2775,2142,0,4,Southeast
Alvorada,TO,0,8374,8374,0,2605,2398,207,7699,118,467,714,732,4885,783,27707,74965000,1679,0.708,0.677,0.843,0.623,-49.1268,-12.4788,302.2473,216,670,1212.167,8427,47184000,49052000,89807000,45666000,231709000,39270000,270979000,8526,31783.0,23016524,267,0,0,0,1,0,1,0,183800494,1410,1652,0,1,North
Alvorada,RS,0,195673,195483,190,60221,60221,0,194483,2857,11832,16525,19930,126085,17254,102,343000,1952,0.699,0.694,0.874,0.564,-51.0777,-29.9975,13.4407,21280,31824,71.602,209213,1379000,450981000,1108759000,749843000,2310961000,212179000,2523140000,207392,12166.0,221330890,2994,0,0,3,5,3,3,311417420,1163539695,58183,17062,0,1,South
Alvorada D'Oeste,RO,0,16853,16841,12,5051,2702,2349,8763,124,591,762,873,5653,760,2556,19512000,3242,0.643,0.654,0.763,0.534,-62.2773,-11.3441,182.4001,162,385,3029.189,14722,81681000,11285000,49673000,91637000,234276000,9284000,243560000,16902,14410.0,29322835,205,0,0,0,1,0,1,0,194509392,1513,5291,0,1,North
Alvorada De Minas,MG,0,3546,3546,0,966,412,554,1441,29,98,152,159,858,145,138,355000,4802,0.572,0.57,0.794,0.414,-43.3661,-18.7336,671.944,73,83,374.008,3606,6383000,1934000,11660000,23565000,43543000,3680000,47223000,3669,12871.0,24425786,54,0,0,0,0,0,0,0,0,542,456,0,2,Southeast
Alvorada Do Gurguéia,PI,0,5050,5050,0,1289,487,802,1843,25,132,178,194,1150,164,12705,36930000,4681,0.578,0.52,0.749,0.496,-43.8631,-8.444,268.7833,102,54,2131.921,5392,13351000,2011000,10644000,22554000,48561000,3720000,52281000,5303,9859.0,0,26,0,0,0,0,0,0,0,0,189,580,0,1,Northeast
Alvorada Do Norte,GO,0,8084,8084,0,2423,2049,374,6762,114,443,658,710,4202,635,1555,5984000,2898,0.66,0.64,0.819,0.548,-46.5156,-14.4828,512.1333,386,256,1259.366,8614,15458000,7625000,48809000,33479000,105371000,7280000,112651000,8598,13102.0,24655441,193,0,0,2,1,2,1,92074659,131214639,1898,1112,0,1,Midwest
Alvorada Do Sul,PR,0,10283,10270,13,3143,2293,850,7305,89,318,458,548,4755,1137,45193,118098000,1672,0.708,0.695,0.826,0.617,-51.2292,-22.7804,365.0581,147,747,424.25,11306,72662000,11846000,94511000,50440000,229459000,14993000,244452000,11148,21928.0,31346258,241,1,20,1,1,1,1,16389020,152829160,2846,1135,0,2,South
Além Paraíba,MG,0,34349,34349,0,11190,10495,695,31942,383,1595,2154,2581,20557,4672,106,537000,1147,0.726,0.713,0.857,0.626,-42.6959,-21.8768,149.0276,2855,4321,510.25,35321,8789000,164690000,434466000,132796000,740742000,79639000,820380000,35795,22919.0,67637376,2938,0,0,3,2,2,2,176613405,414861611,14176,5528,0,4,Southeast
Amajari,RR,0,9327,9327,0,1022,309,713,1218,27,103,152,152,712,72,1605,8981000,5551,0.484,0.437,0.815,0.319,-61.4206,3.6521,107.7174,56,31,28472.31,12394,32649000,1411000,9413000,94812000,138285000,887000,139171000,11285,12332.0,0,17,1,33,0,0,0,0,0,0,192,356,0,1,North
Amambai,MS,0,34730,34668,62,9056,7341,1715,22526,361,1278,1881,2040,14516,2450,123065,310957000,2606,0.673,0.683,0.818,0.546,-55.2438,-23.1006,481.3404,1326,3506,4202.324,38958,223198000,85748000,287625000,201796000,798367000,79215000,877582000,38030,23076.0,0,646,0,0,1,2,1,2,62606716,512807436,8410,5764,0,1,Midwest
Amaporã,PR,0,5443,5443,0,1646,1313,333,4324,70,284,357,417,2786,410,14061,73690000,2699,0.669,0.644,0.785,0.591,-52.7868,-23.0974,407.855,104,364,384.735,6181,34138000,4667000,30360000,26026000,95190000,7569000,102760000,6019,17073.0,0,111,0,0,0,0,0,0,0,0,1262,741,0,1,South
Amapá,AP,0,8069,8069,0,1784,1528,256,6353,127,515,771,823,3707,410,503,2990000,3255,0.642,0.631,0.79,0.532,-50.7932,2.0539,11.9477,222,126,8454.847,9029,22310000,3567000,41756000,69044000,136677000,6880000,143556000,8690,16520.0,0,73,0,0,0,1,0,1,0,23199565,231,331,0,2,North
Amapá Do Maranhão,MA,0,6431,6431,0,1508,1143,365,4821,114,413,626,660,2645,363,1462,4356000,5458,0.52,0.503,0.688,0.406,-46.0092,-1.6809,59.4369,288,25,502.402,6918,8664000,1705000,15332000,20463000,46163000,2489000,48652000,6844,7109.0,0,26,0,0,0,0,0,0,0,0,124,529,0,1,Northeast
Amaraji,PE,0,21939,21932,7,6189,4648,1541,15319,234,1032,1391,1560,9478,1624,7999,39626000,4645,0.58,0.575,0.748,0.454,-35.4508,-8.3785,291.6231,1319,354,234.956,22788,34525000,6424000,51350000,86134000,178433000,8705000,187138000,22685,8249.0,39476880,148,0,0,0,1,0,1,0,22907488,1224,1604,0,1,Northeast
Amaral Ferrador,RS,0,6353,6350,3,2117,658,1459,1866,21,113,159,147,1174,252,6992,45022000,3620,0.624,0.664,0.802,0.457,-52.2513,-30.8751,47.8405,111,135,505.983,6974,54004000,3050000,19761000,30801000,107616000,2632000,110248000,6817,16172.0,15438525,101,0,0,0,1,0,1,0,33347337,1698,1091,0,1,South
Amaralina,GO,0,3434,3434,0,1091,377,714,1101,14,44,99,106,719,119,3834,13053000,3940,0.609,0.569,0.813,0.489,-49.2954,-13.9255,493.8622,25,63,1343.237,3778,24772000,1553000,7090000,15980000,49395000,1649000,51044000,3723,13710.0,13067841,31,0,0,0,0,0,0,0,0,245,290,0,1,Midwest
Amarante,PI,0,17135,17135,0,4870,2587,2283,8738,130,539,633,831,5350,1255,3783,6746000,4209,0.598,0.574,0.75,0.497,-42.8537,-6.2466,99.8146,215,245,1155.205,17592,7963000,5445000,40821000,62626000,116854000,7806000,124661000,17317,7199.0,0,192,0,0,1,1,1,1,27846958,47835640,786,3497,0,1,Northeast
Amarante Do Maranhão,MA,0,37932,37932,0,8326,3852,4473,14910,334,1281,1759,1771,8477,1288,3885,2674000,5143,0.555,0.541,0.716,0.441,-46.7506,-5.5577,250.763,319,137,7438.217,41136,77972000,9464000,70195000,118114000,275744000,9462000,285206000,40756,6998.0,0,129,0,0,1,0,1,0,33256121,0,553,6527,0,1,Northeast
Amargosa,BA,0,34351,34337,14,10418,7720,2698,24819,321,1387,2110,2199,15437,3365,3046,12498000,3596,0.625,0.616,0.807,0.492,-39.5981,-13.0345,393.8435,565,1187,431.673,37031,32277000,29233000,148385000,106837000,316732000,21555000,338286000,38041,8893.0,0,537,0,0,1,2,1,2,43762123,262486884,4689,4707,0,4,Northeast
Amaturá,AM,0,9467,9432,35,1429,952,477,4868,119,446,533,678,2813,279,594,8897000,5057,0.56,0.499,0.773,0.455,-68.2096,-3.3668,73.4477,207,17,4754.109,11332,6291000,2064000,11805000,44684000,64845000,1387000,66232000,11047,5995.0,20330168,14,0,0,0,0,0,0,0,0,5,273,0,1,North
Americana,SP,0,210638,210056,582,67721,67445,276,208976,2304,9428,12273,14455,143893,26623,1500,7800000,19,0.811,0.8,0.876,0.76,-47.3304,-22.7409,550.3658,54519,86865,133.912,237112,10819000,2446315000,5466272000,920895000,8844301000,1443615000,10287915000,231621,44417.0,541958027,10786,3,298,25,13,4,2,5292143124,8118622688,113213,33482,3,5,Southeast
Americano Do Brasil,GO,0,5508,5501,7,1925,1649,276,5002,54,259,383,453,3267,586,1117,4756000,1909,0.7,0.669,0.813,0.631,-49.9836,-16.2551,891.349,188,298,133.563,6057,31180000,5189000,19427000,22839000,78636000,3182000,81818000,5969,13707.0,17455712,150,0,0,0,0,0,0,0,0,1230,990,0,1,Midwest
Ametista Do Sul,RS,0,7323,7323,0,2401,1297,1104,3798,38,207,316,364,2474,399,2162,15125000,2407,0.682,0.697,0.809,0.562,-53.1922,-27.3564,465.8201,77,236,93.704,7416,13408000,14548000,26003000,32633000,86592000,5823000,92415000,7573,12203.0,17687246,246,0,0,0,1,0,1,0,21393737,2423,1563,0,2,South
Amontada,CE,0,39232,39189,43,9807,4252,5555,15906,292,1172,1502,1774,9453,1713,20526,25038000,4018,0.606,0.503,0.761,0.582,-39.8288,-3.3649,43.4163,1021,244,1178.162,43131,30593000,145731000,82491000,141345000,400160000,21416000,421576000,42508,9918.0,84717861,208,1,26,1,1,1,1,12164753,34725149,1681,5839,0,0,Northeast
Amorinópolis,GO,0,3609,3609,0,1312,806,506,2161,27,82,134,192,1384,342,3250,10725000,2433,0.681,0.672,0.813,0.579,-51.0972,-16.6179,638.7982,116,102,408.525,3185,23761000,1964000,11277000,15610000,52612000,2070000,54682000,3447,15864.0,0,46,0,0,0,0,0,0,0,0,609,613,0,1,Midwest
Amparo,SP,0,65829,65717,112,20542,16499,4043,52531,547,2271,3166,3630,35339,7578,5025,32519000,93,0.785,0.78,0.871,0.711,-46.7651,-22.6994,673.4298,8236,16145,445.323,71700,111433000,1040281000,1409813000,278935000,2840462000,603309000,3443771000,70742,48681.0,203473715,2629,3,173,5,2,4,2,1101561932,997232084,29581,15267,0,4,Southeast
Amparo,PB,0,2088,2088,0,636,340,296,1062,17,99,92,94,641,119,660,141000,4008,0.606,0.537,0.752,0.551,-37.0648,-7.5672,622.126,6,18,121.984,2227,1276000,1169000,4315000,14575000,21335000,643000,21979000,2229,9860.0,0,16,0,0,0,0,0,0,0,0,131,153,0,1,Northeast
Amparo De São Francisco,SE,0,2275,2275,0,686,554,132,1834,29,123,163,203,1119,197,194,927000,3890,0.611,0.569,0.728,0.55,-36.9275,-10.134,23.4056,118,80,35.33,2368,1417000,1960000,5057000,16199000,24633000,1310000,25943000,2382,10891.0,0,31,0,0,0,0,0,0,0,0,132,276,0,1,Northeast
Amparo Do Serra,MG,0,5053,5053,0,1467,766,701,2623,26,115,196,273,1607,406,794,3020000,3284,0.641,0.616,0.811,0.528,-42.8072,-20.5101,583.0962,137,185,136.186,4751,9322000,2361000,12728000,20583000,44994000,1816000,46810000,4947,9462.0,12866549,46,0,0,0,0,0,0,0,0,0,0,0,2,Southeast
Ampére,PR,0,17308,17299,9,5505,4230,1275,12190,198,703,975,1187,7915,1212,14806,48327000,1638,0.709,0.699,0.824,0.62,-53.4733,-25.9171,527.4612,220,745,298.349,18989,78581000,127265000,188209000,74792000,468847000,57313000,526160000,18740,28077.0,42327496,666,0,0,2,2,2,2,52965209,255821301,6771,3529,0,1,South
Amélia Rodrigues,BA,0,25190,25190,0,7169,5663,1506,19897,317,1153,1648,1901,12788,2090,768,1385000,2768,0.666,0.609,0.81,0.6,-38.7556,-12.4002,203.6105,474,1017,173.484,25224,26986000,28035000,116439000,84612000,256073000,24327000,280400000,26424,10612.0,0,250,1,279,0,2,0,2,0,149202650,2540,2331,0,3,Northeast
América Dourada,BA,0,15961,15961,0,4343,2919,1424,10815,195,847,1089,1254,6374,1056,6982,19255000,5036,0.561,0.506,0.751,0.464,-41.4372,-11.4496,688.069,644,118,822.373,16097,29851000,8038000,28119000,49549000,115557000,5202000,120759000,16781,7196.0,38520382,80,0,0,0,1,0,1,0,18022992,968,940,0,5,Northeast
Américo Brasiliense,SP,0,34478,34439,39,10290,10215,75,34097,536,1985,2537,3038,23299,2702,9563,67147000,544,0.751,0.709,0.852,0.701,-48.1066,-21.73,730.2162,1266,5267,122.785,39962,19867000,278040000,326975000,133081000,757963000,79678000,837641000,38701,21644.0,84689608,830,0,0,3,2,3,2,308291016,221911382,13728,5748,0,1,Southeast
Américo De Campos,SP,0,5706,5701,5,1976,1672,304,4782,52,210,296,369,3019,836,9325,55311000,663,0.745,0.715,0.817,0.708,-49.727,-20.2964,449.1606,546,572,252.876,5956,35522000,3901000,33320000,23943000,96686000,2499000,99184000,5955,16656.0,18743451,180,0,0,2,0,2,0,135081944,0,2224,668,0,1,Southeast
Anadia,AL,0,17424,17424,0,4670,2513,2157,10654,181,759,972,1132,6518,1092,3201,12929000,4887,0.568,0.546,0.756,0.444,-36.3008,-9.6841,133.2471,66,93,186.134,17564,38253000,3636000,27652000,68734000,138275000,2217000,140492000,17832,7879.0,0,124,0,0,0,0,0,0,0,0,991,1278,0,1,Northeast
Anagé,BA,0,25516,25516,0,7252,1486,5766,4904,71,319,383,434,3121,576,1960,3889000,5330,0.54,0.549,0.771,0.371,-41.1271,-14.6113,390.0491,110,136,1336.361,18194,14679000,8533000,55583000,74085000,152880000,7496000,160376000,19824,8090.0,0,238,0,0,1,1,1,1,15763051,41163151,1169,1069,0,2,Northeast
Anahy,PR,0,2874,2874,0,938,681,257,2108,32,116,150,205,1294,311,10575,28565000,2066,0.695,0.671,0.844,0.593,-53.1333,-24.6476,485.18,21,164,102.647,2816,39279000,2973000,24871000,15181000,82304000,5412000,87716000,2908,30164.0,14069816,54,0,0,0,0,0,0,0,0,818,589,0,1,South
Anajatuba,MA,0,25291,25291,0,6503,1866,4637,7005,112,429,560,714,4420,770,1717,2899000,4624,0.581,0.523,0.762,0.492,-44.6207,-3.2576,6.906,983,91,942.568,26614,37669000,7007000,41727000,81361000,167763000,5954000,173717000,27125,6404.0,49404250,80,0,0,1,0,1,0,46324365,0,619,2640,0,1,Northeast
Anajás,PA,0,24759,24759,0,4856,1934,2922,9443,218,1023,1287,1264,5162,489,267,4036000,5550,0.484,0.506,0.774,0.29,-49.945,-0.9845,5.0011,698,54,6913.64,28859,40211000,11240000,29413000,100027000,180891000,8333000,189225000,28012,6755.0,0,62,0,0,0,1,0,1,0,41401980,5,278,0,1,North
Analândia,SP,0,4293,4288,5,1385,1113,272,3376,40,181,243,235,2137,540,11620,77034000,475,0.754,0.745,0.861,0.668,-47.6608,-22.1288,659.5578,660,644,325.953,4933,28543000,39254000,44727000,25948000,138472000,4104000,142577000,4789,29772.0,22279144,162,0,0,1,0,1,0,58768815,0,1535,332,0,1,Southeast
Anamã,AM,0,10214,10214,0,1807,809,998,4149,87,385,551,547,2359,220,404,3276000,4306,0.594,0.537,0.741,0.526,-61.4059,-3.5764,21.6137,328,18,2446.121,13269,32313000,3166000,13847000,44086000,93411000,1906000,95318000,12653,7533.0,30129965,19,0,0,0,0,0,0,0,0,5,145,0,1,North
Ananindeua,PA,0,471980,471506,474,125942,125625,317,461048,7193,29206,39259,43913,311512,29965,56,866000,1366,0.718,0.684,0.821,0.658,-48.3721,-1.3687,26.5644,28979,36045,190.451,525566,10569000,1042975000,3389222000,1485518000,5928283000,782607000,6710890000,510834,13137.0,163796082,4051,3,313,8,10,3,4,1715496372,10632315675,64865,50367,0,4,North
Ananás,TO,0,9865,9848,17,2644,2191,453,8101,139,590,783,949,4832,808,368,1283000,2656,0.671,0.621,0.804,0.605,-48.0798,-6.3628,192.7155,77,410,1576.973,9607,18295000,2414000,29059000,53728000,103496000,5371000,108866000,9798,11111.0,0,141,0,0,0,0,0,0,0,0,635,1829,0,1,North
Anapu,PA,0,20543,20543,0,5036,2438,2598,9803,231,911,1146,1151,5902,462,7609,52391000,5235,0.548,0.563,0.788,0.371,-51.2016,-3.4761,56.3087,666,99,11895.296,27161,94403000,18252000,74664000,94087000,281405000,28197000,309602000,26271,11785.0,63452420,210,0,0,1,1,1,1,26176877,27779087,494,2893,0,1,North
Anapurus,MA,0,13939,13939,0,3333,1747,1586,7158,138,613,782,798,4323,504,11469,35746000,4620,0.581,0.511,0.764,0.502,-43.1058,-3.667,94.5036,969,156,608.903,15566,17757000,13201000,44423000,47778000,123159000,10418000,133577000,15499,8618.0,0,78,0,0,0,0,0,0,0,0,425,1253,0,1,Northeast
Anastácio,MS,0,23835,23767,68,7382,6019,1363,19029,301,1241,1685,1768,11948,2086,11322,25979000,2828,0.663,0.663,0.789,0.557,-55.8046,-20.4824,155.3547,1325,1479,2946.317,25128,72693000,64829000,120916000,122654000,381091000,31287000,412378000,24852,16593.0,51507521,314,1,34,1,1,1,1,12109870,52096405,4390,5638,0,1,Midwest
Anaurilândia,MS,0,8493,8493,0,2753,1447,1306,4303,61,229,342,394,2766,511,19710,49835000,2682,0.67,0.676,0.826,0.538,-52.7182,-22.1827,312.6036,184,693,3395.437,8993,86686000,19705000,40946000,54401000,201738000,11602000,213340000,8885,24011.0,0,110,0,0,0,1,0,1,0,49619506,1908,747,0,2,Midwest
Anchieta,ES,0,23902,23876,26,7347,5634,1713,17595,249,978,1344,1470,11795,1759,3398,22091000,1040,0.73,0.696,0.856,0.654,-40.6477,-20.8056,5.7136,1478,2433,409.691,28736,29505000,138812000,254395000,231028000,653740000,59713000,713453000,28091,25398.0,220135586,699,9,556,0,3,0,3,0,383785706,5981,3489,0,7,Southeast
Anchieta,SC,0,6380,6380,0,1981,869,1112,2580,42,123,178,199,1701,337,2703,12361000,1963,0.699,0.703,0.8,0.608,-53.3333,-26.5357,700.5274,79,460,231.7,5721,50854000,14963000,37481000,27525000,130824000,7616000,138440000,5909,23429.0,17209606,281,0,0,0,1,0,1,0,91708391,2365,903,0,1,South
Andaraí,BA,0,13960,13955,5,3761,2218,1543,7730,133,509,820,916,4532,820,2178,2458000,5144,0.555,0.54,0.764,0.415,-41.3246,-12.8014,416.6532,453,222,1590.316,13153,6281000,5170000,29873000,50087000,91411000,3617000,95028000,13732,6920.0,35353283,143,0,0,1,1,1,1,30902472,126805562,551,733,0,3,Northeast
Andirá,PR,0,20610,20610,0,6664,6278,386,19308,233,979,1295,1484,12497,2820,23193,85493000,1165,0.725,0.69,0.838,0.66,-50.2264,-23.0518,491.0449,424,3852,236.075,20139,64695000,157787000,302032000,89729000,614243000,71362000,685605000,20822,32927.0,60953205,511,0,0,2,1,2,1,115605757,186377818,7174,3386,0,2,South
Andorinha,BA,0,14414,14414,0,4625,2055,2570,6199,96,362,510,558,4020,653,836,36000,4458,0.588,0.586,0.731,0.474,-39.8323,-10.3442,414.5499,28,188,1362.386,14690,9030000,58657000,47212000,52118000,167016000,5200000,172216000,15551,11074.0,33934328,109,0,0,0,0,0,0,0,0,1141,1356,0,3,Northeast
Andradas,MG,0,37270,37243,27,12232,9405,2827,27784,297,1267,1623,1973,18664,3960,9297,86463000,926,0.734,0.731,0.878,0.617,-46.5756,-22.0728,878.9043,1482,3650,469.396,40747,114164000,143065000,361549000,146269000,765047000,89842000,854890000,40407,21157.0,63069636,1349,0,0,3,2,2,2,224337194,485025568,15060,6586,0,5,Southeast
Andradina,SP,0,55334,55288,46,18106,16890,1216,49207,565,2213,3018,3611,32179,7621,37004,158936000,142,0.779,0.762,0.885,0.702,-51.3788,-20.9015,392.0173,3594,8353,964.226,57112,119854000,1495549000,1042418000,216897000,2874717000,235010000,3109727000,57300,54271.0,138287448,1707,0,0,4,2,3,2,558188743,927150505,22374,14223,0,1,Southeast
Andrelândia,MG,0,12173,12167,6,3972,3226,746,9735,105,445,674,759,6233,1519,5058,24626000,1921,0.7,0.675,0.818,0.621,-44.3177,-21.737,956.201,544,774,1005.285,12242,39438000,13030000,79425000,47901000,179795000,15545000,195341000,12507,15618.0,23530223,274,0,0,0,1,0,1,0,241621204,3113,889,0,1,Southeast
André Da Rocha,RS,0,1216,1216,0,425,175,250,427,2,20,26,26,272,81,21974,84117000,1310,0.72,0.738,0.837,0.605,-51.5737,-28.632,704.8762,163,65,329.4,1324,92114000,3355000,15947000,9395000,120810000,2730000,123540000,1300,95031.0,10211816,51,0,0,0,0,0,0,0,0,449,57,0,1,South
Angatuba,SP,0,22210,22199,11,7052,5059,1993,15904,227,897,1223,1342,10446,1769,23445,218280000,1351,0.719,0.693,0.827,0.648,-48.4068,-23.484,628.2864,779,1928,1027.288,24969,154078000,176165000,336359000,93211000,759813000,74604000,834417000,24400,34197.0,0,935,0,0,2,2,2,1,243032933,259535716,7211,3074,0,2,Southeast
Angelim,PE,0,10202,10202,0,3002,1850,1152,5990,91,383,585,603,3457,871,1279,1863000,4807,0.572,0.555,0.751,0.448,-36.2848,-8.8904,639.9271,113,353,118.037,11072,43538000,4451000,17338000,42060000,107386000,2983000,110369000,10965,10066.0,0,48,0,0,0,0,0,0,0,0,826,756,0,1,Northeast
Angelina,SC,0,5250,5247,3,1627,366,1261,1092,16,46,58,90,715,167,1909,23181000,2264,0.687,0.699,0.797,0.581,-48.9835,-27.5823,440.5214,259,420,499.776,4860,48243000,8702000,29506000,23511000,109962000,3651000,113613000,4998,22732.0,15125235,138,0,0,0,0,0,0,0,0,1831,1558,0,3,South
Angelândia,MG,0,8003,8003,0,2114,1119,995,4036,82,287,460,512,2347,348,3677,20810000,4223,0.597,0.594,0.756,0.473,-42.2665,-17.7278,864.3383,126,75,185.211,8481,20106000,3432000,19610000,34036000,77185000,2690000,79875000,8502,9395.0,18397341,71,0,0,0,0,0,0,0,0,906,1264,0,1,Southeast
Angical,BA,0,14073,14068,5,3801,1806,1995,6516,106,383,580,666,3991,790,4864,17922000,3598,0.625,0.564,0.778,0.556,-44.6958,-12.0067,471.0,105,267,1530.05,14017,51161000,5644000,34025000,49339000,140169000,3553000,143722000,14707,9772.0,29981612,80,0,0,1,1,1,1,12297386,75676855,692,1051,0,2,Northeast
Angical Do Piauí,PI,0,6672,6672,0,2077,1639,438,5213,63,254,442,534,3110,810,1055,1915000,3487,0.63,0.61,0.737,0.555,-42.7439,-6.0872,191.9541,224,89,223.06,6792,3086000,2085000,16632000,25096000,46898000,2508000,49406000,6688,7387.0,15685856,76,0,0,0,0,0,0,0,0,329,1429,0,1,Northeast
Angico,TO,0,3175,3175,0,844,507,337,1934,30,128,193,200,1176,207,497,1466000,3159,0.648,0.576,0.773,0.612,-47.8621,-6.3878,270.8336,35,104,451.733,3417,16115000,1111000,4809000,20988000,43022000,998000,44021000,3401,12943.0,8555456,40,0,0,0,0,0,0,0,0,139,385,0,1,North
Angicos,RN,0,11549,11549,0,3277,2865,412,10029,108,564,855,857,6356,1289,630,117000,3613,0.624,0.606,0.756,0.53,-36.6054,-5.6604,104.8118,207,247,741.582,11724,4035000,7997000,44980000,54088000,111099000,8229000,119328000,11908,10021.0,0,176,0,0,0,2,0,2,0,248048284,1254,1894,0,1,Northeast
Angra Dos Reis,RJ,0,169511,169071,440,53512,51698,1814,150897,2111,8287,12103,14002,101876,12518,455,18453000,1209,0.724,0.74,0.846,0.605,-44.3196,-23.0091,7.6356,24364,24165,813.21,200407,41516000,2771018000,4051525000,1653972000,8518031000,604530000,9122561000,191504,47636.0,785075940,3463,10,936,10,2,3,2,1326386059,1652719694,34896,15307,0,5,Southeast
Anguera,BA,0,10242,10242,0,2534,1183,1351,4296,55,259,336,338,2662,646,900,195000,4424,0.589,0.565,0.766,0.471,-39.2485,-12.1496,238.0813,22,118,187.84,11142,3195000,3111000,19505000,32363000,58173000,3631000,61805000,11402,5420.0,0,58,0,0,0,0,0,0,0,0,528,621,0,1,Northeast
Angélica,MS,0,9185,9182,3,3038,2542,496,6758,103,451,519,567,4364,754,46115,284619000,2008,0.697,0.692,0.839,0.582,-53.7697,-22.1561,360.9227,313,664,1273.268,10620,286060000,151557000,103986000,58780000,600383000,27123000,627506000,10304,60899.0,0,208,0,0,1,1,1,1,24094689,76307873,2805,1844,0,2,Midwest
Anhanguera,GO,0,1020,1020,0,353,333,20,950,10,41,64,77,621,137,10,90000,1168,0.725,0.724,0.802,0.657,-48.2174,-18.3344,546.6775,121,168,56.95,1137,1917000,1051000,4088000,8384000,15439000,497000,15935000,1115,14292.0,9630590,16,0,0,0,0,0,0,0,0,313,127,0,1,Midwest
Anhembi,SP,0,5653,5644,9,1799,1335,464,4223,64,278,361,388,2649,483,14687,134153000,1289,0.721,0.681,0.863,0.637,-48.1269,-22.7863,460.917,626,562,736.557,6627,47749000,18665000,29752000,29410000,125576000,3122000,128698000,6397,20118.0,28251700,139,0,0,0,0,0,0,0,0,1469,227,0,2,Southeast
Anhumas,SP,0,3738,3726,12,1156,953,203,3038,30,164,221,256,1953,414,11367,60619000,745,0.741,0.683,0.845,0.706,-51.3861,-22.2932,469.7525,79,207,320.84,4085,24627000,5622000,17491000,18392000,66133000,1874000,68007000,4026,16892.0,16208660,98,0,0,0,0,0,0,0,0,1152,356,0,1,Southeast
Anicuns,GO,0,20239,20233,6,6830,5829,1001,16804,203,887,1157,1344,11465,1748,15236,66632000,1493,0.714,0.695,0.834,0.627,-49.9591,-16.4607,699.9645,763,1183,979.23,21717,96835000,88717000,121335000,79758000,386645000,22013000,408657000,21614,18907.0,51770284,490,0,0,2,2,2,2,95464251,295650737,5540,3450,0,3,Midwest
Anita Garibaldi,SC,0,8623,8623,0,2709,1465,1244,4531,58,245,314,382,2917,615,5157,18860000,2243,0.688,0.667,0.826,0.592,-51.1312,-27.6838,886.2327,347,524,587.994,7313,39123000,8716000,46777000,38396000,133012000,6104000,139116000,7708,18048.0,22182781,200,0,0,0,1,0,1,0,53474432,3135,1026,0,2,South
Anitápolis,SC,0,3214,3214,0,1075,465,610,1315,19,68,80,118,827,203,477,4736000,2578,0.674,0.699,0.836,0.524,-49.1316,-27.9099,444.183,148,378,540.636,3236,19562000,3522000,18218000,16562000,57865000,1993000,59858000,3251,18412.0,13303415,95,0,0,0,0,0,0,0,0,1119,821,0,1,South
Anori,AM,0,16317,16296,21,2981,2063,918,9976,217,893,1097,1255,5826,688,565,3283000,5030,0.561,0.54,0.757,0.433,-61.659,-3.7454,20.3462,593,35,6036.38,20538,79417000,4752000,20474000,70733000,175375000,1818000,177193000,19749,8972.0,25903648,76,0,0,0,0,0,0,0,0,17,395,0,1,North
Anta Gorda,RS,0,6073,6073,0,1939,828,1111,2313,23,87,129,144,1538,392,10517,70243000,789,0.74,0.742,0.868,0.63,-52.0158,-28.9709,423.6256,106,520,242.262,6003,62970000,12689000,63719000,28793000,168171000,19189000,187361000,6216,30142.0,17180383,334,0,0,0,1,0,1,0,61760863,2805,716,0,1,South
Antas,BA,0,17072,17072,0,4646,1755,2891,6313,73,339,439,503,4059,900,4175,5474000,4367,0.592,0.573,0.739,0.491,-38.331,-10.4127,432.8269,451,279,321.606,19093,12995000,5045000,37225000,53027000,108292000,4302000,112595000,19382,5809.0,0,98,0,0,0,0,0,0,0,0,572,1284,0,1,Northeast
Antonina,PR,0,18891,18866,25,5819,4957,862,15510,216,883,1263,1548,9361,2239,1432,13199000,2260,0.687,0.686,0.838,0.564,-48.7129,-25.4302,9.9764,1921,2858,882.317,19011,12968000,221099000,175388000,81199000,490653000,34593000,525246000,19418,27049.0,38345841,323,1,24,1,2,1,2,17998761,205303079,3128,1363,0,2,South
Antonina Do Norte,CE,0,6984,6984,0,2005,1499,506,4995,80,320,379,556,2812,848,1463,781000,4191,0.599,0.55,0.772,0.506,-39.9824,-6.7797,387.2471,107,89,260.104,7328,1797000,2067000,18448000,26423000,48735000,2731000,51467000,7253,7096.0,0,39,0,0,0,0,0,0,0,0,478,1595,0,2,Northeast
Antônio Almeida,PI,0,3039,3039,0,871,633,238,2203,33,138,185,220,1384,243,6856,22196000,3705,0.62,0.579,0.781,0.527,-44.1965,-7.2194,251.7919,53,54,645.748,3158,8894000,10946000,8720000,14325000,42885000,3003000,45887000,3109,14760.0,11567551,44,1,18,0,0,0,0,0,0,118,493,0,1,Northeast
Antônio Cardoso,BA,0,11554,11554,0,2898,903,1995,3218,56,220,240,281,2080,341,2832,1124000,5039,0.561,0.544,0.768,0.422,-39.1187,-12.4348,167.9557,44,82,293.53,11691,7111000,4391000,32774000,39038000,83313000,7584000,90898000,12200,7451.0,0,23,0,0,0,0,0,0,0,0,509,782,0,1,Northeast
Antônio Carlos,SC,0,7458,7458,0,2274,737,1537,2341,36,101,161,205,1600,238,1458,21681000,572,0.749,0.768,0.89,0.615,-48.765,-27.5134,19.0948,486,1119,233.043,8411,230529000,127518000,155766000,41599000,555412000,43838000,599250000,8223,72875.0,31527835,377,0,0,0,2,0,2,0,299044704,3518,2044,0,1,South
Antônio Carlos,MG,0,11114,11108,6,3470,2495,975,7825,79,351,513,654,5167,1061,668,7662000,2379,0.683,0.65,0.838,0.584,-43.7556,-21.3186,1059.3339,605,819,529.915,11432,22020000,20999000,46106000,42387000,131512000,9401000,140913000,11584,12164.0,0,143,0,0,0,1,0,1,0,46113614,2624,1198,0,4,Southeast
Antônio Dias,MG,0,9565,9565,0,2878,1401,1477,4662,75,277,370,503,2944,493,97,290000,3220,0.645,0.624,0.849,0.507,-42.8695,-19.6515,445.4637,2938,246,787.061,9363,21792000,22126000,47511000,42014000,133444000,11281000,144725000,9660,14982.0,23779361,114,0,0,1,0,1,0,17416186,0,1532,996,0,2,Southeast
Antônio Gonçalves,BA,0,11015,11015,0,3092,1659,1433,5770,85,373,532,596,3487,697,712,1234000,4206,0.598,0.58,0.741,0.498,-40.2757,-10.5758,500.5641,36,115,345.283,11715,5278000,3502000,17308000,35293000,61381000,2158000,63539000,11989,5300.0,0,101,0,0,0,0,0,0,0,0,582,791,0,1,Northeast
Antônio João,MS,0,8208,8179,29,2241,1949,292,6065,128,404,554,623,3649,707,56159,128517000,3234,0.643,0.633,0.799,0.526,-55.9481,-22.1947,691.6796,168,536,1145.175,8891,76641000,8172000,49934000,49293000,184040000,16104000,200144000,8744,22889.0,28193377,76,1,22,1,0,1,0,26266288,0,1681,687,0,1,Midwest
Antônio Martins,RN,0,6907,6907,0,2095,1167,928,3774,62,216,333,324,2332,507,702,200000,4693,0.578,0.554,0.76,0.458,-37.8857,-6.216,325.1789,126,19,244.897,7137,1623000,3540000,10481000,32512000,48155000,1596000,49751000,7221,6890.0,14572484,71,0,0,0,0,0,0,0,0,446,995,0,1,Northeast
Antônio Olinto,PR,0,7351,7351,0,2434,221,2213,677,10,33,55,67,431,81,17735,87792000,3004,0.656,0.626,0.825,0.547,-50.1979,-25.9867,814.2806,148,244,469.62,7441,90186000,10751000,26722000,32535000,160195000,5403000,165598000,7582,21841.0,18874532,85,0,0,0,0,0,0,0,0,2217,1032,0,8,South
Antônio Prado,RS,0,12833,12828,5,4247,3180,1067,6081,59,242,353,479,4040,908,4818,75421000,417,0.758,0.777,0.835,0.671,-51.2836,-28.8554,640.4363,849,2510,348.148,13055,63291000,134647000,188112000,60786000,446837000,66837000,513674000,13296,38634.0,37029748,810,0,0,0,3,0,3,0,499560522,5852,1014,0,1,South
Antônio Prado De Minas,MG,0,1671,1671,0,556,349,207,1003,6,38,63,73,608,215,121,643000,2344,0.684,0.674,0.83,0.572,-42.1093,-21.0182,331.8212,37,86,83.802,1609,3785000,984000,5684000,10236000,20689000,621000,21310000,1670,12761.0,0,44,0,0,0,0,0,0,0,0,398,359,0,1,Southeast
Anápolis,GO,0,334613,333947,666,104418,102621,1797,301151,4261,16632,22387,26102,201477,30292,11805,63815000,869,0.737,0.737,0.822,0.66,-48.9572,-16.3288,1023.4352,22148,66643,933.156,381970,54165000,3712361000,5874020000,1426500000,11067047000,2051712000,13118759000,370875,35372.0,990890692,9170,7,627,22,15,4,3,2325572354,28144438043,134923,73452,1,10,Midwest
Anísio De Abreu,PI,0,9098,9098,0,2568,1324,1244,4496,86,325,416,419,2773,477,1200,277000,4288,0.594,0.534,0.768,0.512,-43.0349,-9.1749,434.1161,186,86,337.877,9818,2811000,2778000,21146000,37314000,64049000,4283000,68332000,9655,7077.0,0,69,0,0,0,0,0,0,0,0,441,906,0,1,Northeast
Aparecida,SP,0,35007,34962,45,10341,10161,180,34084,421,1749,2265,2610,22928,4111,260,1244000,458,0.755,0.735,0.828,0.706,-45.2294,-22.8482,582.2604,5011,9586,121.076,36129,1863000,155047000,758103000,142824000,1057836000,57167000,1115003000,36248,30760.0,91052277,1974,15,1922,3,2,2,2,366335729,539303520,12667,4636,1,1,Southeast
Aparecida,PB,0,7676,7676,0,2209,1056,1153,3635,50,223,300,275,2196,591,727,1671000,4670,0.578,0.567,0.747,0.456,-38.0833,-6.7837,215.4375,7,40,295.705,8337,6958000,3557000,21268000,36294000,68078000,4445000,72523000,8348,8687.0,14746170,100,0,0,0,0,0,0,0,0,450,1299,0,1,Northeast
Aparecida D'Oeste,SP,0,4450,4444,6,1560,1295,265,3623,34,137,217,280,2258,697,2578,29857000,1288,0.721,0.697,0.804,0.67,-50.8856,-20.4508,423.2461,162,270,179.004,4234,27409000,17120000,31276000,18322000,94127000,4312000,98439000,4362,22567.0,16106956,111,0,0,1,0,1,0,71689270,0,1871,591,0,1,Southeast
Aparecida De Goiânia,GO,0,455657,455315,342,136583,136408,176,452266,7452,29804,38420,42004,307200,27386,113,576000,1367,0.718,0.716,0.834,0.62,-49.2433,-16.8221,827.0,25295,114202,278.539,565957,10267000,2468260000,6057955000,1783782000,10320265000,1660720000,11980985000,532135,22515.0,0,8947,2,43,13,12,3,2,769152705,3205937623,138951,102673,1,6,Midwest
Aparecida Do Rio Doce,GO,0,2427,2427,0,818,659,159,1940,20,103,159,145,1278,235,7000,20448000,2107,0.693,0.7,0.814,0.583,-51.1515,-18.297,569.5319,33,137,602.133,2474,34699000,3356000,15233000,17228000,70515000,3388000,73902000,2514,29396.0,0,59,0,0,0,0,0,0,0,0,623,302,0,1,Midwest
Aparecida Do Rio Negro,TO,0,4213,4209,4,1254,975,279,3307,73,263,334,362,1925,350,22840,63217000,3108,0.651,0.593,0.791,0.588,-47.9767,-9.9559,267.0708,101,106,1160.368,4741,28055000,2306000,11869000,28513000,70743000,2783000,73526000,4672,15738.0,12715142,47,2,67,0,0,0,0,0,0,412,713,0,1,North
Aparecida Do Taboado,MS,0,22320,22290,30,7513,6728,785,18228,233,969,1328,1572,11949,2177,25584,101258000,1996,0.697,0.717,0.804,0.588,-51.0976,-20.085,392.2656,879,2255,2750.15,25431,174676000,266245000,238651000,140178000,819749000,73752000,893501000,24745,36108.0,71995120,746,0,0,1,2,1,2,58741483,336914700,6989,5283,0,1,Midwest
Aperibé,RJ,0,10213,10213,0,3459,3000,459,8854,97,414,591,685,5824,1243,30,658000,2151,0.692,0.67,0.785,0.631,-42.1049,-21.6194,65.9309,480,579,94.542,11612,7331000,14050000,57315000,80675000,159371000,8649000,168019000,11160,15055.0,0,269,0,0,2,0,2,0,56112094,0,2368,3396,0,3,Southeast
Apiacá,ES,0,7512,7512,0,2458,1772,686,5211,64,251,332,411,3235,918,2577,21279000,2607,0.673,0.659,0.841,0.549,-41.5634,-21.1564,115.3891,227,335,193.984,7580,20391000,5020000,29211000,35200000,89822000,3460000,93282000,7928,11766.0,0,149,0,0,0,1,0,1,0,32840310,2395,1310,0,3,Southeast
Apiacás,MT,0,8567,8545,22,2527,1864,663,4709,69,317,429,450,3167,277,90,1084000,2559,0.675,0.666,0.809,0.57,-57.3954,-9.5655,221.8814,330,351,20493.065,9979,25385000,6506000,36272000,54971000,123134000,9359000,132494000,9551,13872.0,26285675,145,1,22,0,0,0,0,0,0,588,2636,0,1,Midwest
Apiaí,SP,0,25191,25187,4,7582,5522,2060,18138,239,1049,1536,1912,11415,1987,9352,147258000,1602,0.71,0.662,0.835,0.647,-48.8487,-24.5133,925.8538,1813,3611,974.322,24526,158668000,104447000,219566000,88969000,571650000,42709000,614359000,25077,24499.0,55210018,826,1,25,2,2,2,2,209428257,214084069,5753,3221,0,4,Southeast
Apicum-Açu,MA,0,14959,14959,0,3401,2085,1316,9097,183,675,1009,1103,5493,634,566,1277000,4901,0.568,0.529,0.718,0.483,-45.0767,-1.5306,10.5788,350,55,340.288,17063,15179000,4029000,24630000,56253000,100091000,3629000,103720000,18169,5709.0,38906474,77,0,0,1,0,1,0,14783791,0,153,673,0,1,Northeast
Apiúna,SC,0,9600,9600,0,3028,1385,1643,3607,30,173,249,305,2495,355,665,8142000,1692,0.708,0.735,0.827,0.584,-49.3916,-27.0418,132.0897,597,993,492.644,10636,13918000,156115000,105858000,48780000,324671000,62078000,386749000,10432,37073.0,36431515,412,0,0,1,1,1,1,67755216,24573629,3935,1126,0,1,South
Apodi,RN,0,34763,34763,0,10026,5176,4850,17487,234,845,1137,1458,11841,1972,8711,88029000,3321,0.639,0.611,0.747,0.571,-37.7978,-5.6638,76.2446,245,310,1602.477,35814,66153000,42618000,134412000,148414000,391597000,28037000,419633000,36257,11574.0,0,367,2,140,1,3,1,3,25773614,472249500,3757,10060,0,2,Northeast
Aporá,BA,0,17731,17731,0,5183,2519,2664,8471,128,587,807,869,5008,1072,2928,4652000,5234,0.548,0.516,0.751,0.425,-38.08,-11.6554,190.1098,416,327,479.262,17673,16105000,6982000,30612000,60967000,114665000,3561000,118226000,19223,6150.0,0,90,0,0,0,0,0,0,0,0,831,1687,0,2,Northeast
Aporé,GO,0,3803,3788,15,1271,839,432,2490,56,163,187,180,1656,248,23700,105094000,2109,0.693,0.692,0.823,0.584,-51.9281,-18.9589,556.3527,530,147,2900.053,4163,110397000,121407000,36779000,23598000,292180000,10354000,302534000,4110,73609.0,0,45,0,0,0,1,0,1,0,48497397,898,373,0,1,Midwest
Apuarema,BA,0,7459,7459,0,2141,1474,667,5112,78,320,502,525,3094,593,2686,5492000,5185,0.552,0.555,0.735,0.413,-39.7421,-13.8532,272.5486,665,91,150.83,7360,15710000,3194000,17833000,27490000,64227000,3688000,67914000,7745,8769.0,0,52,0,0,0,0,0,0,0,0,314,588,0,1,Northeast
Apucarana,PR,0,120919,120716,203,38514,36467,2047,107880,1376,5693,7368,8603,71202,13638,41698,137729000,593,0.748,0.741,0.845,0.668,-51.46,-23.5516,866.281,4814,30129,558.389,133726,111920000,616639000,1426996000,516489000,2672043000,293739000,2965782000,131571,22541.0,0,5258,1,68,7,3,3,2,924807767,2494915290,49181,19174,0,7,South
Apuiarés,CE,0,13925,13913,12,3890,1653,2237,5766,86,348,454,576,3528,774,3345,2640000,3738,0.618,0.536,0.741,0.593,-39.4304,-3.948,81.4219,383,100,545.158,14814,4148000,11594000,24718000,47794000,88254000,4666000,92920000,14644,6345.0,32081247,93,0,0,0,0,0,0,0,0,802,2842,0,3,Northeast
Apuí,AM,0,18007,18007,0,4614,2721,1893,10540,175,788,1141,1303,6569,564,1235,9753000,3368,0.637,0.621,0.772,0.54,-59.8857,-7.1979,132.9811,422,157,54240.556,21583,60354000,12501000,35644000,74532000,183031000,2244000,185275000,21031,8810.0,32300675,166,1,32,1,0,1,0,27785557,0,327,2458,0,1,North
Aquidabã,SE,0,20056,20056,0,5994,3520,2474,11422,173,774,1006,1102,7072,1295,974,9807000,4682,0.578,0.573,0.747,0.452,-37.0222,-10.2925,220.4098,522,271,359.543,21443,49822000,12235000,66874000,91673000,220603000,12814000,233417000,21452,10881.0,33064256,160,0,0,1,2,1,2,8358906,91570524,1470,3093,0,1,Northeast
Aquidauana,MS,0,45614,45455,159,12472,10970,1502,35080,550,2208,2935,3288,21842,4257,485,4625000,2227,0.688,0.69,0.84,0.562,-55.7906,-20.4747,152.4602,2607,4191,16970.711,47784,153002000,91375000,316480000,249920000,810777000,67935000,878711000,47323,18568.0,107940983,788,9,366,3,2,2,2,193354527,709524768,7671,8943,0,5,Midwest
Aquiraz,CE,0,72628,72447,181,19694,18508,1186,27233,389,1721,2202,2666,17652,2603,4281,16579000,3282,0.641,0.608,0.788,0.55,-38.3898,-3.9062,22.7593,2896,2028,480.997,79563,82216000,510291000,809034000,293325000,1694866000,449366000,2144232000,78438,27337.0,218853602,1132,2,101,1,2,1,2,33291376,293670671,9362,9135,0,8,Northeast
Arabutã,SC,0,4193,4193,0,1343,445,898,1303,19,62,99,87,801,235,1348,4554000,943,0.733,0.744,0.863,0.614,-52.1486,-27.1574,480.1771,123,279,133.014,4266,41496000,12930000,23255000,23005000,100686000,6040000,106727000,4278,24948.0,17606493,181,0,0,0,0,0,0,0,0,1623,664,0,2,South
Aracaju,SE,1,571149,570674,475,169830,169830,0,566369,7978,32261,39994,46322,388256,51558,38,132000,230,0.77,0.784,0.823,0.708,-37.0482,-10.9072,4.2883,50717,126511,182.163,648939,2679000,2624804000,9244912000,2652552000,14524947000,1973535000,16498482000,641523,25718.0,1300130786,14534,0,0,20,51,5,4,2731893609,52322358115,173933,78612,4,14,Northeast
Aracati,CE,0,69159,69018,141,19811,12836,6975,43879,618,2558,3163,3929,28786,4825,15008,48868000,3016,0.655,0.607,0.742,0.624,-37.7728,-4.5671,10.4008,2941,1700,1230.507,74084,116909000,256318000,505133000,226949000,1105310000,109267000,1214577000,73188,16595.0,142346366,1090,3,89,2,3,2,3,89284748,1109182372,7674,12262,0,17,Northeast
Aracatu,BA,0,13743,13743,0,3657,1103,2554,3933,47,252,331,340,2490,473,2744,6116000,4626,0.581,0.591,0.754,0.439,-41.4617,-14.4266,737.282,72,118,1489.804,13229,13554000,4699000,25824000,41199000,85276000,4074000,89349000,14023,6372.0,29476471,113,1,30,0,0,0,0,0,0,1075,1070,0,1,Northeast
Araci,BA,0,51651,51651,0,13643,5643,8000,19588,285,1340,1802,2130,12021,2010,12001,11881000,5368,0.534,0.534,0.747,0.381,-38.961,-11.3357,267.9389,49,531,1495.554,54099,60257000,23249000,121535000,172927000,377968000,13926000,391894000,55637,7044.0,99615019,450,0,0,1,3,1,3,32548892,247066374,3572,3334,0,1,Northeast
Aracitaba,MG,0,2058,2058,0,701,580,121,1640,17,61,107,132,1025,298,209,894000,2880,0.661,0.608,0.823,0.577,-43.3816,-21.3393,596.3781,48,137,106.608,2066,2814000,1164000,5864000,11703000,21545000,611000,22156000,2112,10491.0,9314086,38,0,0,0,0,0,0,0,0,369,211,0,1,Southeast
Aracoiaba,CE,0,25391,25391,0,7042,3910,3132,13713,222,821,1140,1435,8338,1757,10663,9495000,3807,0.615,0.55,0.759,0.556,-38.8094,-4.3704,122.8444,1079,321,656.597,26437,17854000,12091000,58084000,94362000,182391000,8610000,191000000,26203,7289.0,64913578,191,0,0,1,1,1,1,40573059,29981932,1677,3830,0,17,Northeast
Aracruz,ES,0,81832,81760,72,23158,20957,2201,71122,1027,4348,5759,6532,47806,5650,6856,82186000,508,0.752,0.717,0.838,0.707,-40.2762,-19.8233,68.063,2673,6066,1420.285,99305,56308000,2365067000,1155391000,465507000,4042273000,567096000,4609369000,96746,47644.0,368641022,2178,4,286,3,6,3,3,321092564,1002102921,21019,11173,0,0,Southeast
Aragarças,GO,0,18305,18299,6,5814,5553,261,17403,268,963,1316,1502,11669,1685,704,2322000,982,0.732,0.694,0.83,0.68,-52.2469,-15.8978,313.6835,794,1602,664.53,19959,8906000,12568000,108045000,67179000,196698000,18379000,215076000,19736,10898.0,33644300,307,0,0,1,1,1,1,23037491,139234374,7061,5657,0,1,Midwest
Aragoiânia,GO,0,8365,8361,4,2699,1775,924,5518,91,297,436,493,3602,599,213,553000,2357,0.684,0.683,0.837,0.56,-49.4509,-16.9156,868.761,269,438,218.661,10116,10152000,12718000,34272000,34701000,91843000,7288000,99130000,9607,10319.0,22916113,173,0,0,0,0,0,0,0,0,2039,1512,0,1,Midwest
Aragominas,TO,0,5882,5882,0,1694,647,1047,2222,28,147,203,236,1342,266,1125,1880000,4314,0.593,0.611,0.739,0.461,-48.5234,-7.1643,302.7352,30,101,1173.035,5786,20404000,1058000,6419000,34493000,62374000,1496000,63870000,5887,10849.0,0,27,0,0,0,0,0,0,0,0,180,586,0,1,North
Araguacema,TO,0,6317,6313,4,1844,885,959,2868,41,187,302,322,1683,333,23576,73850000,3315,0.639,0.587,0.805,0.553,-49.5618,-8.8018,156.0,73,146,2778.452,7016,33767000,2621000,15812000,38710000,90909000,3699000,94608000,6934,13644.0,0,48,2,66,0,0,0,0,0,0,271,643,0,1,North
Araguaiana,MT,0,3197,3195,2,1087,745,342,1228,18,56,82,97,786,189,2187,6259000,2262,0.687,0.671,0.817,0.591,-51.8336,-15.7312,292.8545,100,155,6422.966,3119,31624000,1825000,13914000,21276000,68640000,4410000,73050000,3059,23880.0,14396981,40,0,0,0,0,0,0,0,0,214,330,0,1,Midwest
Araguainha,MT,0,1096,1096,0,387,330,57,944,7,55,74,82,578,148,377,1392000,1871,0.701,0.65,0.844,0.627,-53.0356,-16.8575,453.4124,49,50,688.326,956,3977000,744000,3643000,9254000,17618000,866000,18484000,953,19395.0,0,26,0,0,0,0,0,0,0,0,59,43,0,1,Midwest
Araguanã,TO,0,5030,5030,0,1397,937,460,3373,77,259,328,430,1971,308,23,37000,4080,0.604,0.617,0.756,0.473,-48.6437,-6.5822,139.4512,34,107,836.03,5663,20059000,2034000,9665000,33165000,64924000,1939000,66863000,5581,11981.0,0,35,0,0,0,0,0,0,0,0,263,524,0,1,North
Araguanã,MA,0,13973,13973,0,2975,1187,1788,5363,116,472,648,670,3031,426,1589,2452000,5373,0.533,0.483,0.706,0.444,-45.6688,-2.9491,19.124,337,111,805.193,15297,12422000,2744000,17035000,42391000,74592000,2696000,77289000,15182,5091.0,30554045,38,0,0,0,0,0,0,0,0,240,969,0,1,Northeast
Araguapaz,GO,0,7510,7510,0,2578,1813,765,5167,65,302,415,410,3362,613,1333,4741000,2587,0.674,0.696,0.814,0.54,-50.6347,-15.0885,295.3289,464,386,2193.7,7756,40756000,4542000,32943000,29923000,108164000,6493000,114657000,7841,14623.0,19304600,128,0,0,1,0,1,0,22659058,0,1302,1367,0,1,Midwest
Araguari,MG,0,109801,109682,119,35535,33050,2485,101933,1236,5015,6741,7746,67958,13237,68334,480589000,200,0.773,0.74,0.871,0.716,-48.1916,-18.6483,925.1206,5926,21572,2729.508,116691,348862000,1396863000,1391602000,484609000,3621936000,301892000,3923828000,116871,33574.0,0,3108,0,0,4,2,4,2,785847257,1876722876,39645,26020,0,5,Southeast
Araguatins,TO,0,31329,31329,0,8166,5343,2823,20031,367,1582,2155,2359,11739,1829,1090,3926000,3478,0.631,0.604,0.793,0.525,-48.1235,-5.6506,116.2614,386,1361,2625.286,35346,31989000,13508000,121458000,189076000,356032000,21227000,377258000,34810,10838.0,57118319,252,0,0,1,3,1,3,22046750,518417957,2129,7540,0,2,North
Araguaçu,TO,0,8786,8786,0,2938,1973,965,5832,85,301,446,559,3682,759,9793,26289000,2565,0.675,0.642,0.796,0.602,-49.8286,-12.9256,315.1678,101,312,5167.652,8567,78932000,4475000,38473000,51850000,173731000,7582000,181312000,8734,20759.0,20537118,139,0,0,1,2,1,2,38262002,426703895,1188,1922,0,1,North
Araguaína,TO,0,150484,150426,58,43903,41682,2221,142289,2560,9657,12141,13547,94139,10245,6887,16099000,512,0.752,0.727,0.821,0.712,-48.2087,-7.1913,235.277,4104,16248,4000.416,177517,61742000,426902000,1947775000,942343000,3378762000,426461000,3805223000,173112,21981.0,338060665,3412,5,445,5,7,2,3,482052214,3026405692,32957,55965,0,4,North
Araioses,MA,0,42505,42505,0,10275,3011,7264,12310,201,932,1197,1400,7272,1308,6421,10022000,5454,0.521,0.497,0.709,0.402,-41.8991,-2.8893,0.1042,689,167,1786.345,46103,41397000,9847000,69783000,128254000,249282000,9837000,259119000,45680,5672.0,0,158,1,31,1,1,1,1,10442396,45213177,134,1503,0,1,Northeast
Aral Moreira,MS,0,10251,10248,3,2605,1445,1160,5340,111,439,605,649,3143,393,193987,487259000,3435,0.633,0.628,0.798,0.507,-55.6308,-22.9479,608.8308,156,281,1655.66,11963,255838000,21112000,168836000,68305000,514090000,67946000,582036000,11586,50236.0,36837180,101,0,0,0,1,0,1,0,129453742,1265,486,0,2,Midwest
Aramari,BA,0,10036,10031,5,2686,1457,1229,5105,64,282,438,451,3343,527,452,2177000,4460,0.588,0.568,0.761,0.47,-38.5031,-12.0882,216.236,73,219,368.948,11332,17957000,9969000,18262000,35416000,81604000,3276000,84880000,11385,7455.0,21840945,48,0,0,0,0,0,0,0,0,573,599,0,1,Northeast
Arambaré,RS,0,3693,3693,0,1336,1063,273,2897,19,122,201,238,1721,596,21979,112281000,2175,0.691,0.694,0.833,0.57,-51.5013,-30.9093,6.7585,654,414,518.193,3600,72377000,5821000,29379000,20493000,128070000,3617000,131687000,3755,35070.0,14661149,101,0,0,0,0,0,0,0,0,1229,470,0,2,South
Arame,MA,0,31702,31702,0,6615,2926,3689,12430,255,1026,1394,1522,7115,1118,12369,10104000,5498,0.512,0.525,0.701,0.365,-46.0136,-4.8861,128.6437,309,111,2976.039,32637,48302000,8817000,63630000,91854000,212602000,9707000,222309000,32083,6929.0,51200062,186,0,0,1,0,1,0,38908528,0,336,4550,0,1,Northeast
Aramina,SP,0,5152,5152,0,1653,1541,112,4811,63,205,295,364,3189,695,15666,78827000,767,0.74,0.723,0.856,0.656,-47.786,-20.0899,625.034,487,1284,202.829,5585,25800000,5040000,62206000,23304000,116350000,9283000,125633000,5519,22764.0,0,190,0,0,1,0,1,0,43512765,0,2095,249,0,1,Southeast
Arandu,SP,0,6123,6114,9,1906,1442,464,4596,55,229,320,434,2976,582,17270,109513000,2311,0.685,0.675,0.806,0.592,-49.051,-23.1334,633.0611,332,470,285.908,6348,59464000,7937000,33302000,27460000,128163000,3110000,131273000,6360,20640.0,22354749,123,0,0,1,0,1,0,58649761,0,1582,519,0,1,Southeast
Arantina,MG,0,2823,2823,0,932,864,68,2633,31,123,188,243,1659,389,42,178000,2019,0.697,0.633,0.834,0.641,-44.247,-21.9161,1073.7728,94,229,89.42,2804,21867000,3829000,12042000,14411000,52149000,1269000,53418000,2877,18567.0,11352761,58,0,0,0,0,0,0,0,0,742,328,0,1,Southeast
Arapeí,SP,0,2493,2493,0,800,609,191,1836,16,99,146,166,1140,269,116,534000,2456,0.68,0.634,0.812,0.612,-44.4481,-22.6748,518.5469,207,253,156.903,2478,1886000,1328000,8103000,13307000,24623000,1265000,25889000,2516,10290.0,11756457,59,0,0,0,0,0,0,0,0,701,218,0,1,Southeast
Arapiraca,AL,0,214006,214006,0,58426,49779,8647,184819,2949,12119,16172,18598,118061,16920,9437,45114000,3143,0.649,0.638,0.78,0.549,-36.6573,-9.7559,269.1145,3752,11518,345.655,230417,370477000,308357000,2126985000,805750000,3611568000,401063000,4012632000,232671,17246.0,0,3992,0,0,4,7,3,3,439762034,3888786753,32730,56910,1,3,Northeast
Arapoema,TO,0,6742,6736,6,1961,1567,394,5417,72,373,519,681,3274,498,1409,4086000,2457,0.68,0.645,0.81,0.601,-49.0756,-7.6526,209.4461,136,208,1552.217,6670,33343000,3402000,26739000,38035000,101519000,4881000,106400000,6777,15700.0,13537891,70,0,0,0,1,0,1,0,88216190,476,1656,0,1,North
Araponga,MG,0,8152,8152,0,2373,962,1411,3022,28,174,253,301,1941,325,6142,57703000,5357,0.536,0.597,0.76,0.339,-42.5263,-20.6657,905.2062,157,160,303.793,8425,27378000,3670000,18895000,30740000,80683000,2345000,83027000,8523,9742.0,16131509,97,0,0,0,0,0,0,0,0,1116,1843,0,2,Southeast
Arapongas,PR,0,104150,103928,222,33178,32481,697,97967,1344,5023,6516,7696,65768,11620,42303,127191000,596,0.748,0.751,0.834,0.669,-51.4383,-23.4135,801.9528,8125,28149,382.215,121198,188460000,1321168000,1600358000,469966000,3579951000,450807000,4030758000,116960,34463.0,185286189,4432,1,45,9,3,3,2,1110330700,1840531869,45514,24268,0,4,South
Araporã,MG,0,6144,6141,3,1796,1712,84,5848,104,371,415,542,3862,554,11777,76357000,1678,0.708,0.676,0.813,0.646,-49.1901,-18.4419,447.8663,207,1439,295.837,6804,31077000,757777000,182854000,46335000,1018043000,63784000,1081827000,6717,161058.0,47697279,185,0,0,1,0,1,0,29998118,0,1125,809,0,1,Southeast
Arapoti,PR,0,25855,25763,92,7970,6695,1275,21650,338,1380,1861,2166,13941,1964,63258,232681000,1228,0.723,0.715,0.823,0.643,-49.8248,-24.1466,875.6984,884,2137,1360.494,27925,212766000,219768000,332910000,117831000,883274000,159004000,1042279000,27728,37589.0,62713054,768,1,60,2,2,2,2,68862942,506573477,8036,2649,0,2,South
Araputanga,MT,0,15342,15310,32,4839,3861,978,12121,191,720,1008,1137,7997,1068,2515,6977000,1170,0.725,0.704,0.826,0.655,-58.3484,-15.4681,213.4748,704,1511,1610.076,16690,29352000,123120000,139851000,87528000,379850000,34558000,414409000,16109,25725.0,34216331,357,0,0,1,1,1,1,59807994,189765107,3142,5508,0,1,Midwest
Arapuá,MG,0,2775,2775,0,986,726,260,2074,19,102,134,161,1319,339,597,8479000,1191,0.724,0.718,0.871,0.608,-46.1546,-19.0339,1020.0731,27,126,173.894,2833,16297000,27572000,41576000,14828000,100273000,16673000,116946000,2879,40620.0,11665105,42,0,0,0,0,0,0,0,0,714,455,0,1,Southeast
Arapuã,PR,0,3561,3550,11,1157,456,701,1334,12,61,97,127,779,258,26916,62478000,2536,0.676,0.638,0.828,0.584,-51.7913,-24.3087,706.6134,98,163,217.371,3128,46623000,3725000,24380000,17571000,92300000,4748000,97048000,3384,28679.0,14389866,60,0,0,0,0,0,0,0,0,948,674,0,1,South
Araquari,SC,0,24810,24799,11,7240,6804,436,15727,283,1154,1482,1565,10350,893,2860,26044000,1813,0.703,0.696,0.83,0.602,-48.6927,-26.376,16.9991,1640,4530,384.172,36710,53202000,1553197000,760284000,153350000,2520033000,683619000,3203652000,33867,94595.0,81016868,1512,0,0,1,2,1,2,17529663,261617349,9087,2995,0,2,South
Arara,PB,0,12653,12653,0,3918,2900,1018,8899,142,515,746,812,4938,1746,2955,2575000,5240,0.548,0.569,0.712,0.407,-35.7595,-6.8262,448.051,27,185,99.111,13438,4278000,2195000,22782000,56849000,86104000,4110000,90214000,13448,6708.0,0,112,0,0,0,0,0,0,0,0,799,802,0,1,Northeast
Araranguá,SC,0,61310,61236,74,19827,16407,3420,37937,541,2022,2651,3178,25612,3933,7970,69202000,370,0.76,0.745,0.853,0.691,-49.481,-28.9358,14.8555,2284,7980,303.16,67578,100047000,247824000,849649000,250131000,1447651000,125453000,1573104000,66442,23676.0,126471699,2590,0,0,2,3,2,3,147653258,1296755086,30603,14539,0,5,South
Araraquara,SP,0,208662,208346,316,68806,67088,1718,200956,2326,9031,11512,13945,135953,28189,60955,414763000,15,0.815,0.788,0.877,0.782,-48.1744,-21.7904,673.0726,34605,84851,1003.625,233744,108953000,1578522000,5206368000,903405000,7797249000,1135679000,8932928000,228664,39066.0,639269199,8805,2,311,18,12,4,2,3385244676,8970525553,105398,43072,3,3,Southeast
Araras,SP,0,118843,118722,121,36348,34490,1858,111624,1404,5302,6853,8419,75712,13934,38387,224510000,127,0.781,0.763,0.859,0.728,-47.3858,-22.3571,635.4982,16746,35505,644.831,132934,102136000,1396341000,2434354000,491613000,4424444000,573042000,4997486000,130102,38412.0,0,4662,0,0,9,3,4,2,1970167024,5131632325,55160,29368,1,2,Southeast
Ararendá,CE,0,10491,10491,0,3077,1500,1577,4887,74,337,455,468,2831,722,2321,2177000,4405,0.59,0.522,0.763,0.516,-40.8311,-4.7519,380.9835,19,86,344.131,10901,7043000,2121000,16500000,37258000,62922000,2267000,65189000,10800,6036.0,25709304,52,0,0,0,0,0,0,0,0,501,2425,0,0,Northeast
Arari,MA,0,28488,28488,0,6948,4340,2608,17938,309,1235,1660,1805,11132,1797,3121,10845000,3582,0.626,0.587,0.764,0.546,-44.7788,-3.4592,7.7995,514,402,1100.275,29764,52899000,10810000,71728000,88028000,223465000,11326000,234791000,29297,8014.0,63097322,213,0,0,1,0,1,0,81583608,0,994,5060,0,2,Northeast
Araricá,RS,0,4864,4864,0,1689,1395,294,3996,44,240,294,366,2639,413,290,3206000,2468,0.679,0.696,0.824,0.547,-50.9257,-29.6172,32.2123,542,364,35.165,5622,2071000,47757000,52683000,28428000,130939000,21113000,152052000,5349,28426.0,0,230,0,0,0,0,0,0,0,0,2308,801,0,1,South
Araripe,CE,0,20685,20685,0,5552,3575,1977,12713,206,972,1235,1478,7331,1491,7941,24578000,4973,0.564,0.515,0.759,0.459,-40.1374,-7.2062,630.6356,59,114,1099.933,21550,18075000,5193000,41675000,78498000,143441000,5108000,148550000,21345,6959.0,48710113,225,0,0,0,0,0,0,0,0,1302,3977,0,1,Northeast
Araripina,PE,0,77302,77302,0,20644,13026,7618,44831,826,3306,4337,4943,27171,4248,31015,14445000,4102,0.602,0.595,0.785,0.467,-40.5025,-7.5781,639.7811,400,2916,2037.387,83964,17189000,100407000,303900000,304397000,725892000,60782000,786673000,83287,9445.0,133008120,1020,1,61,3,3,3,3,210122075,1200253755,6940,20919,0,6,Northeast
Araruama,RJ,0,112008,111576,432,35874,34329,1545,105368,1328,5420,7701,9236,67071,14612,5009,54934000,1380,0.718,0.714,0.839,0.617,-42.3411,-22.8774,12.1036,13404,17971,638.15,130439,39534000,245682000,1155250000,868306000,2308773000,158553000,2467326000,124940,19748.0,0,2160,2,202,7,2,3,2,871586225,762428394,39047,14738,0,4,Southeast
Araruna,PR,0,13419,13414,5,4358,3416,942,10473,114,541,735,885,6896,1302,45924,203006000,1807,0.704,0.685,0.785,0.648,-52.4996,-23.9282,607.0459,208,722,493.19,13939,109044000,107631000,121669000,58186000,396530000,51923000,448453000,14056,31905.0,35151806,346,0,0,2,1,2,1,49506635,74456511,4403,2613,0,2,South
Araruna,PB,0,18879,18879,0,5233,2697,2536,9280,152,600,924,1013,5315,1276,4000,12547000,4912,0.567,0.549,0.758,0.439,-35.736,-6.5314,547.2111,317,160,241.302,20215,10350000,5936000,42079000,90217000,148582000,6310000,154892000,20237,7654.0,36976146,115,0,0,1,0,1,0,10003170,0,1157,2364,0,1,Northeast
Arataca,BA,0,10392,10392,0,3052,1627,1425,5579,110,408,610,695,3129,627,10897,12660000,5067,0.559,0.557,0.758,0.413,-39.4133,-15.2609,158.9178,155,239,435.962,11079,35955000,5867000,16690000,37657000,96169000,1773000,97942000,11697,8373.0,0,54,0,0,0,0,0,0,0,0,376,480,0,2,Northeast
Aratiba,RS,0,6565,6562,3,2167,1179,988,3290,29,88,175,250,2167,581,5044,22472000,211,0.772,0.801,0.856,0.67,-52.3038,-27.3944,413.7973,164,510,342.279,6283,60021000,785942000,56919000,41595000,944478000,10393000,954871000,6621,144219.0,41170656,293,0,0,0,2,0,2,0,94966419,2774,901,0,4,South
Aratuba,CE,0,11529,11529,0,2924,1002,1922,3743,60,254,322,421,2262,424,5588,27344000,3665,0.622,0.53,0.775,0.587,-39.0476,-4.4169,820.2471,556,47,114.785,11346,25357000,3004000,19949000,42397000,90707000,2903000,93610000,11300,8284.0,26376618,103,0,0,0,0,0,0,0,0,512,2201,0,2,Northeast
Aratuípe,BA,0,8599,8599,0,2430,1570,860,5490,68,359,508,602,3370,583,943,9250000,4758,0.575,0.57,0.753,0.443,-39.0029,-13.0806,5.2204,141,109,174.012,8813,20204000,3137000,14884000,26920000,65145000,2204000,67349000,9150,7361.0,16557898,79,0,0,0,0,0,0,0,0,432,711,0,1,Northeast
Araucária,PR,0,119123,119036,87,35508,32832,2676,107927,1690,6568,8805,10320,73194,7350,29566,168602000,781,0.74,0.743,0.852,0.639,-49.4019,-25.5916,903.2763,10693,32322,469.24,141410,142543000,8948487000,4827455000,800602000,14719087000,2259713000,16978801000,135459,125343.0,581165348,3405,1,62,8,5,3,2,772957921,4117520258,54618,12514,0,4,South
Arauá,SE,0,10878,10878,0,2970,1233,1737,3388,48,252,277,345,2153,313,4926,15579000,4259,0.595,0.55,0.783,0.49,-37.6123,-11.2645,112.3246,185,112,198.967,10168,24898000,6510000,23321000,51592000,106321000,5108000,111429000,10467,10646.0,24647093,69,0,0,0,1,0,1,0,23750144,834,1129,0,1,Northeast
Araxá,MG,0,93672,93607,65,29333,28856,477,88054,1052,4292,5674,6674,60012,10350,24677,116971000,213,0.772,0.756,0.858,0.709,-46.94,-19.5913,989.5981,6321,19021,1164.062,105083,96591000,1520791000,2016078000,448272000,4081732000,679618000,4761350000,103287,46098.0,286807625,3043,2,242,5,2,3,2,770924555,5692666641,39605,14529,0,3,Southeast
Araçagi,PB,0,17224,17219,5,5017,2043,2974,6774,98,424,516,653,4090,993,7319,115525000,5222,0.549,0.54,0.745,0.412,-35.3833,-6.8517,50.0,159,146,231.155,17079,25804000,5225000,31300000,74171000,136500000,5232000,141732000,17061,8307.0,29530101,93,0,0,0,1,0,1,0,39901933,1102,3051,0,1,Northeast
Araçariguama,SP,0,17080,16964,116,4940,4940,0,11232,201,808,970,1067,7458,728,183,752000,1784,0.704,0.717,0.814,0.597,-47.0715,-23.43,710.6765,3338,3887,145.204,21854,1213000,626414000,1010191000,104139000,1741957000,379540000,2121497000,20581,103080.0,83166049,640,0,0,1,0,1,0,21391147,0,6008,1881,0,1,Southeast
Araçatuba,SP,0,181579,181338,241,60701,59557,1144,177356,2082,8029,10265,12635,119383,24962,38092,154331000,76,0.788,0.782,0.841,0.744,-50.4392,-21.2055,403.1018,32829,65261,1167.126,195874,97393000,1406150000,4203708000,653261000,6360511000,578041000,6938553000,193828,35797.0,424985928,7528,1,216,19,13,6,2,9683428174,6884291918,81636,60964,3,4,Southeast
Araçaí,MG,0,2243,2243,0,719,561,158,1783,18,76,134,176,1136,243,44,423000,2060,0.695,0.659,0.805,0.632,-44.2469,-19.2004,715.8005,264,155,187.538,2341,5048000,11545000,11237000,13097000,40927000,4370000,45297000,2361,19185.0,10184154,42,0,0,0,0,0,0,0,0,371,130,0,1,Southeast
Araçoiaba,PE,0,18156,18156,0,4851,4100,751,16457,263,1158,1582,1739,10397,1318,1316,5866000,4349,0.592,0.544,0.765,0.498,-35.094,-7.7856,161.8506,187,209,96.381,20312,6207000,3780000,36918000,75515000,122419000,6158000,128577000,20046,6414.0,35091631,91,0,0,0,0,0,0,0,0,1252,1369,0,1,Northeast
Araçoiaba Da Serra,SP,0,27299,27244,55,8572,5874,2698,18665,221,941,1275,1602,12200,2426,2606,12958000,175,0.776,0.751,0.86,0.723,-47.5872,-23.5073,625.4577,5926,4770,255.327,33499,22563000,156649000,290010000,116742000,585963000,65195000,651158000,31915,20403.0,80068968,999,0,0,1,1,1,1,117109423,108612579,12086,4792,0,1,Southeast
Araçu,GO,0,3802,3800,2,1302,1154,148,3349,26,149,212,287,2132,543,2147,7209000,2114,0.693,0.686,0.838,0.578,-49.6817,-16.3543,721.9351,188,245,149.371,3560,15220000,4823000,13131000,16614000,49788000,2101000,51889000,3753,13826.0,12822380,62,0,0,0,0,0,0,0,0,966,622,0,1,Midwest
Araçuaí,MG,0,36013,36002,11,9962,6599,3363,23201,330,1445,1902,2159,14711,2654,2928,13766000,2838,0.663,0.633,0.821,0.56,-42.0642,-16.8518,317.4352,909,1965,2236.279,36705,13830000,33761000,170666000,128189000,346445000,19123000,365568000,37317,9796.0,0,589,0,0,2,3,2,3,64660445,514667118,3407,7502,0,2,Southeast
Araçás,BA,0,11561,11561,0,3161,1616,1545,5737,105,399,548,568,3752,365,807,2428000,4860,0.57,0.54,0.744,0.462,-38.1983,-12.2152,70.6223,110,168,474.66,12143,11005000,28035000,32121000,48201000,119361000,6125000,125487000,12495,10043.0,38273598,80,0,0,0,0,0,0,0,0,972,797,0,1,Northeast
Araújos,MG,0,7883,7883,0,2459,2117,342,6751,112,398,504,582,4441,714,369,2641000,1971,0.698,0.694,0.855,0.574,-45.1667,-19.9468,799.133,171,977,245.522,9142,109935000,23019000,83194000,34331000,250479000,15609000,266088000,8885,29948.0,17428542,255,0,0,0,1,0,1,0,46805872,2315,1179,0,1,Southeast
Arceburgo,MG,0,9509,9509,0,2874,2473,401,8131,112,446,533,606,5335,1099,2559,15773000,2374,0.683,0.687,0.81,0.573,-46.9444,-21.3602,723.5007,556,781,162.875,10657,23666000,56865000,99366000,42261000,222158000,40460000,262618000,10478,25064.0,22573354,235,0,0,0,1,0,1,0,26401235,2992,1138,0,1,Southeast
Arco-Íris,SP,0,1925,1925,0,582,376,206,1097,8,48,57,64,709,211,6865,31468000,1248,0.722,0.671,0.809,0.694,-50.4649,-21.7739,440.9937,124,142,264.904,1811,27370000,3050000,8785000,11676000,50880000,1107000,51987000,1873,27756.0,12352376,53,0,0,0,0,0,0,0,0,480,206,0,1,Southeast
Arcos,MG,0,36597,36597,0,11580,10709,871,33752,382,1618,2103,2573,23273,3803,5409,22449000,569,0.749,0.717,0.874,0.671,-45.5436,-20.2826,724.5796,1384,4368,509.873,39793,38692000,325305000,426505000,158138000,948640000,148794000,1097434000,39537,27757.0,94212129,1661,0,0,2,2,2,2,171763425,651848235,14355,7274,0,4,Southeast
Arcoverde,PE,0,68793,68793,0,20183,18528,1655,62015,1010,4117,5669,5981,38100,7138,1760,1143000,2739,0.667,0.654,0.799,0.567,-37.0565,-8.4239,671.5833,1957,8534,323.37,73844,10417000,66862000,517443000,250342000,845064000,105560000,950624000,73154,12995.0,128454436,1127,0,0,3,3,3,3,289094286,718504048,12641,9893,0,1,Northeast
Areado,MG,0,13731,13722,9,4500,3769,731,11478,169,610,782,871,7426,1620,8554,63519000,1128,0.727,0.7,0.847,0.649,-46.1466,-21.3584,823.6303,239,772,283.124,14955,39998000,14283000,96576000,54045000,204902000,12189000,217091000,14851,14618.0,24101613,519,0,0,1,1,1,1,68424533,94037941,4911,1210,0,1,Southeast
Areal,RJ,0,11423,11423,0,3505,3062,443,9896,110,512,709,811,6494,1260,12,257000,2333,0.684,0.686,0.823,0.566,-43.1011,-22.2369,450.6948,1109,1700,110.724,12471,2449000,45062000,118469000,99658000,265638000,50639000,316277000,12058,26230.0,47278815,411,0,0,1,1,1,1,17740959,44574576,3258,1656,0,1,Southeast
Arealva,SP,0,7841,7830,11,2663,2111,552,6154,67,274,402,461,3819,1131,11797,114333000,693,0.744,0.718,0.84,0.683,-48.9204,-22.0248,447.9803,1182,948,504.973,8505,50743000,12376000,68142000,32261000,163523000,7186000,170709000,8402,20318.0,0,612,0,0,0,1,0,1,0,44227899,2321,837,0,2,Southeast
Areia,PB,0,23829,23829,0,6355,4068,2287,14513,228,978,1215,1297,8880,1915,4363,29991000,4289,0.594,0.593,0.756,0.467,-35.7034,-6.9655,608.9055,175,371,266.596,22978,23120000,15306000,61523000,93526000,193475000,14275000,207750000,22940,9056.0,0,231,0,0,1,2,1,2,3896765,206213046,2211,2693,0,4,Northeast
